$GPGGA,133837.00,2254.15641,S,04701.72926,W,1,04,2.26,690.8,M,-5.6,M,,*49
$GPGSA,A,3,20,24,29,02,,,,,,,,,3.38,2.26,2.51*07
$GPGSV,2,1,08,02,69,118,39,05,,,28,06,,,23,11,57,118,35*79
$GPGSV,2,2,08,12,,,35,20,26,060,39,24,62,330,36,29,33,269,31*4D
$GPGLL,2254.15641,S,04701.72926,W,133837.00,A,A*67
$GPRMC,133838.00,A,2254.15337,S,04701.72047,W,31.044,69.88,221121,,,A*6B
$GPVTG,69.88,T,,M,31.044,N,57.494,K,A*0B
$GPGGA,133838.00,2254.15337,S,04701.72047,W,1,04,2.26,689.7,M,-5.6,M,,*4B
$GPGSA,A,3,20,24,29,02,,,,,,,,,3.38,2.26,2.51*07
$GPGSV,2,1,08,02,69,120,38,05,,,33,06,,,23,11,57,118,34*78
$GPGSV,2,2,08,12,,,35,20,26,060,38,24,62,330,36,29,33,269,31*4C
$GPGLL,2254.15337,S,04701.72047,W,133838.00,A,A*62
$GPRMC,133839.00,A,2254.15034,S,04701.71170,W,31.610,69.66,221121,,,A*6B
$GPVTG,69.66,T,,M,31.610,N,58.541,K,A*0A
$GPGGA,133839.00,2254.15034,S,04701.71170,W,1,04,2.26,688.4,M,-5.6,M,,*4E
$GPGSA,A,3,20,24,29,02,,,,,,,,,3.38,2.26,2.52*04
$GPGSV,2,1,08,02,69,120,39,05,,,32,06,,,21,11,57,118,34*7A
$GPGSV,2,2,08,12,,,34,20,26,060,38,24,62,330,36,29,33,269,30*4C
$GPGLL,2254.15034,S,04701.71170,W,133839.00,A,A*65
$GPRMC,133837.00,A,2254.14745,S,04701.70287,W,31.830,70.01,221121,,,A*6A
$GPVTG,70.01,T,,M,31.830,N,58.950,K,A*03
$GPGGA,133837.00,2254.14745,S,04701.70287,W,1,04,2.26,686.8,M,-5.6,M,,*48
$GPGSA,A,3,20,24,29,02,,,,,,,,,3.38,2.26,2.52*04
$GPGSV,2,1,08,02,69,120,39,05,,,32,06,,,20,11,57,118,31*7E
$GPGSV,2,2,08,12,,,34,20,26,060,36,24,62,330,36,29,33,269,31*43
$GPGLL,2254.14745,S,04701.70287,W,133837.00,A,A*61
$GPRMC,133838.00,A,2254.14432,S,04701.69405,W,31.586,68.24,221121,,,A*6C
$GPVTG,68.24,T,,M,31.586,N,58.498,K,A*04
$GPGGA,133838.00,2254.14432,S,04701.69405,W,1,04,2.26,685.6,M,-5.6,M,,*4D
$GPGSA,A,3,20,24,29,02,,,,,,,,,3.38,2.26,2.52*04
$GPGSV,2,1,08,02,69,120,32,05,,,31,06,,,18,11,57,118,25*78
$GPGSV,2,2,08,12,,,29,20,26,060,29,24,62,330,27,29,33,269,26*47
$GPGLL,2254.14432,S,04701.69405,W,133838.00,A,A*69
$GPRMC,133839.00,A,2254.14142,S,04701.68463,W,32.797,70.93,221121,,,A*6A
$GPVTG,70.93,T,,M,32.797,N,60.740,K,A*0D
$GPGGA,133839.00,2254.14142,S,04701.68463,W,1,04,2.26,684.8,M,-5.6,M,,*40
$GPGSA,A,3,20,24,29,02,,,,,,,,,3.38,2.26,2.52*04
$GPGSV,2,1,08,02,69,120,37,05,,,31,06,,,19,11,57,118,32*7A
$GPGSV,2,2,08,12,,,30,20,26,060,36,24,62,330,35,29,33,269,28*4C
$GPGLL,2254.14142,S,04701.68463,W,133839.00,A,A*6B
$GPRMC,133840.00,A,2254.13813,S,04701.67530,W,33.527,69.07,221121,,,A*6B
$GPVTG,69.07,T,,M,33.527,N,62.091,K,A*09
$GPGGA,133840.00,2254.13813,S,04701.67530,W,1,04,2.25,684.0,M,-5.6,M,,*47
$GPGSA,A,3,20,24,29,02,,,,,,,,,3.38,2.25,2.52*07
$GPGSV,2,1,08,02,69,120,24,05,,,25,06,,,19,11,57,118,25*7B
$GPGSV,2,2,08,12,,,23,20,26,060,23,24,62,330,25,29,33,269,17*47
$GPGLL,2254.13813,S,04701.67530,W,133840.00,A,A*67
$GPRMC,133841.00,A,2254.13514,S,04701.66575,W,33.572,70.61,221121,,,A*68
$GPVTG,70.61,T,,M,33.572,N,62.175,K,A*0A
$GPGGA,133841.00,2254.13514,S,04701.66575,W,1,04,2.25,683.3,M,-5.6,M,,*48
$GPGSA,A,3,20,24,29,02,,,,,,,,,3.38,2.25,2.52*07
$GPGSV,2,1,08,02,69,120,37,05,,,32,06,,,27,11,57,118,31*77
$GPGSV,2,2,08,12,,,30,20,26,060,37,24,62,330,35,29,33,269,28*4D
$GPGLL,2254.13514,S,04701.66575,W,133841.00,A,A*6C
$GPRMC,133842.00,A,2254.13191,S,04701.65648,W,33.129,69.96,221121,,,A*66
$GPVTG,69.96,T,,M,33.129,N,61.355,K,A*03
$GPGGA,133842.00,2254.13191,S,04701.65648,W,1,04,2.25,682.6,M,-5.6,M,,*48
$GPGSA,A,3,20,24,29,02,,,,,,,,,3.38,2.25,2.52*07
$GPGSV,2,1,08,02,69,120,35,05,,,31,06,,,32,11,57,118,31*72
$GPGSV,2,2,08,12,,,30,20,26,060,34,24,62,330,34,29,33,269,27*40
$GPGLL,2254.13191,S,04701.65648,W,133842.00,A,A*68
$GPRMC,133843.00,A,2254.12881,S,04701.64719,W,32.678,69.67,221121,,,A*66
$GPVTG,69.67,T,,M,32.678,N,60.519,K,A*00
$GPGGA,133843.00,2254.12881,S,04701.64719,W,1,04,2.25,682.0,M,-5.6,M,,*42
$GPGSA,A,3,20,24,29,02,,,,,,,,,3.38,2.25,2.52*07
$GPGSV,2,1,08,02,69,120,37,05,,,26,06,,,35,11,57,118,32*72
$GPGSV,2,2,08,12,,,30,20,26,060,35,24,62,330,35,29,33,269,28*4F
$GPGLL,2254.12881,S,04701.64719,W,133843.00,A,A*64
$GPRMC,133844.00,A,2254.12525,S,04701.63791,W,32.305,69.81,221121,,,A*62
$GPVTG,69.81,T,,M,32.305,N,59.830,K,A*0B
$GPGGA,133844.00,2254.12525,S,04701.63791,W,1,04,2.25,681.9,M,-5.6,M,,*4B
$GPGSA,A,3,20,24,29,02,,,,,,,,,3.38,2.25,2.52*07
$GPGSV,2,1,08,02,69,120,38,05,,,25,06,,,23,11,56,119,32*79
$GPGSV,2,2,08,12,,,31,20,26,060,38,24,62,330,37,29,33,269,32*4A
$GPGLL,2254.12525,S,04701.63791,W,133844.00,A,A*67
$GPRMC,133845.00,A,2254.12200,S,04701.62848,W,32.815,70.06,221121,,,A*64
$GPVTG,70.06,T,,M,32.815,N,60.774,K,A*03
$GPGGA,133845.00,2254.12200,S,04701.62848,W,1,04,2.25,682.1,M,-5.6,M,,*4B
$GPGSA,A,3,20,24,29,02,,,,,,,,,3.38,2.25,2.52*07
$GPGSV,2,1,08,02,69,120,38,05,,,26,06,,,31,11,56,119,32*79
$GPGSV,2,2,08,12,,,32,20,26,060,38,24,62,330,36,29,33,269,32*48
$GPGLL,2254.12200,S,04701.62848,W,133845.00,A,A*6C
$GPRMC,133846.00,A,2254.11880,S,04701.61915,W,32.948,70.03,221121,,,A*60
$GPVTG,70.03,T,,M,32.948,N,61.020,K,A*08
$GPGGA,133846.00,2254.11880,S,04701.61915,W,1,04,2.25,682.4,M,-5.6,M,,*46
$GPGSA,A,3,20,24,29,02,,,,,,,,,3.38,2.25,2.52*07
$GPGSV,2,1,08,02,69,120,38,05,,,27,06,,,24,11,56,119,32*7C
$GPGSV,2,2,08,12,,,33,20,26,060,37,24,62,330,37,29,33,269,32*47
$GPGLL,2254.11880,S,04701.61915,W,133846.00,A,A*64
$GPRMC,133847.00,A,2254.11592,S,04701.60984,W,32.892,70.00,221121,,,A*63
$GPVTG,70.00,T,,M,32.892,N,60.916,K,A*00
$GPGGA,133847.00,2254.11592,S,04701.60984,W,1,04,2.25,682.2,M,-5.6,M,,*46
$GPGSA,A,3,20,24,29,02,,,,,,,,,3.38,2.25,2.52*07
$GPGSV,2,1,08,02,69,120,38,05,,,31,06,,,30,11,56,119,32*7E
$GPGSV,2,2,08,12,,,34,20,26,060,37,24,62,330,37,29,33,269,32*40
$GPGLL,2254.11592,S,04701.60984,W,133847.00,A,A*62
$GPRMC,133848.00,A,2254.11274,S,04701.60061,W,32.619,69.54,221121,,,A*65
$GPVTG,69.54,T,,M,32.619,N,60.411,K,A*0E
$GPGGA,133848.00,2254.11274,S,04701.60061,W,1,04,2.25,681.9,M,-5.6,M,,*4C
$GPGSA,A,3,20,24,29,02,,,,,,,,,3.38,2.25,2.52*07
$GPGSV,2,1,08,02,69,120,38,05,,,31,06,,,24,11,56,119,33*7A
$GPGSV,2,2,08,12,,,34,20,26,060,38,24,62,330,37,29,33,269,32*4F
$GPGLL,2254.11274,S,04701.60061,W,133848.00,A,A*60
$GPRMC,133849.00,A,2254.10969,S,04701.59157,W,32.174,69.73,221121,,,A*65
$GPVTG,69.73,T,,M,32.174,N,59.587,K,A*03
$GPGGA,133849.00,2254.10969,S,04701.59157,W,1,04,2.25,681.9,M,-5.6,M,,*45
$GPGSA,A,3,20,24,29,02,,,,,,,,,3.38,2.25,2.52*07
$GPGSV,2,1,08,02,69,120,37,05,,,30,06,,,34,11,56,119,33*75
$GPGSV,2,2,08,12,,,35,20,26,060,38,24,62,330,39,29,33,269,33*41
$GPGLL,2254.10969,S,04701.59157,W,133849.00,A,A*69
$GPRMC,133850.00,A,2254.10678,S,04701.58259,W,32.015,69.88,221121,,,A*6C
$GPVTG,69.88,T,,M,32.015,N,59.291,K,A*01
$GPGGA,133850.00,2254.10678,S,04701.58259,W,1,04,2.25,682.0,M,-5.6,M,,*44
$GPGSA,A,3,20,24,29,02,,,,,,,,,3.38,2.25,2.52*07
$GPGSV,2,1,08,02,69,120,37,05,,,30,06,,,35,11,56,119,33*74
$GPGSV,2,2,08,12,,,34,20,26,060,39,24,62,330,39,29,33,269,33*41
$GPGLL,2254.10678,S,04701.58259,W,133850.00,A,A*62
$GPRMC,133851.00,A,2254.10419,S,04701.57386,W,31.097,70.83,221121,,,A*6E
$GPVTG,70.83,T,,M,31.097,N,57.592,K,A*01
$GPGGA,133851.00,2254.10419,S,04701.57386,W,1,04,2.25,681.4,M,-5.6,M,,*4B
$GPGSA,A,3,20,24,29,02,,,,,,,,,3.38,2.25,2.52*07
$GPGSV,2,1,08,02,69,120,38,05,,,31,06,,,32,11,56,119,33*7D
$GPGSV,2,2,08,12,,,33,20,26,060,39,24,62,330,39,29,33,269,35*40
$GPGLL,2254.10419,S,04701.57386,W,133851.00,A,A*6A
$GPRMC,133852.00,A,2254.10161,S,04701.56527,W,30.243,70.88,221121,,,A*6A
$GPVTG,70.88,T,,M,30.243,N,56.009,K,A*06
$GPGGA,133852.00,2254.10161,S,04701.56527,W,1,04,2.24,681.4,M,-5.6,M,,*4F
$GPGSA,A,3,20,24,29,02,,,,,,,,,3.38,2.24,2.52*06
$GPGSV,2,1,08,02,69,120,36,05,,,32,06,,,27,11,56,119,35*72
$GPGSV,2,2,08,12,,,28,20,26,060,37,24,62,330,39,29,33,269,35*44
$GPGLL,2254.10161,S,04701.56527,W,133852.00,A,A*6F
$GPRMC,133853.00,A,2254.09903,S,04701.55672,W,29.722,71.60,221121,,,A*62
$GPVTG,71.60,T,,M,29.722,N,55.044,K,A*01
$GPGGA,133853.00,2254.09903,S,04701.55672,W,1,04,2.24,681.9,M,-5.6,M,,*47
$GPGSA,A,3,20,24,29,02,,,,,,,,,3.38,2.24,2.52*06
$GPGSV,2,1,08,02,69,120,37,05,,,31,06,,,27,11,56,119,33*76
$GPGSV,2,2,08,12,,,31,20,26,060,38,24,62,330,37,29,33,269,34*4C
$GPGLL,2254.09903,S,04701.55672,W,133853.00,A,A*6A
$GPRMC,133854.00,A,2254.09656,S,04701.54838,W,29.242,71.72,221121,,,A*6B
$GPVTG,71.72,T,,M,29.242,N,54.156,K,A*02
$GPGGA,133854.00,2254.09656,S,04701.54838,W,1,04,2.24,682.3,M,-5.6,M,,*47
$GPGSA,A,3,20,24,29,02,,,,,,,,,3.37,2.24,2.52*09
$GPGSV,2,1,08,02,69,120,36,05,,,31,06,,,27,11,56,119,32*76
$GPGSV,2,2,08,12,,,34,20,26,060,37,24,62,330,37,29,33,269,34*46
$GPGLL,2254.09656,S,04701.54838,W,133854.00,A,A*63
$GPRMC,133855.00,A,2254.09436,S,04701.54005,W,28.912,73.24,221121,,,A*66
$GPVTG,73.24,T,,M,28.912,N,53.545,K,A*0D
$GPGGA,133855.00,2254.09436,S,04701.54005,W,1,04,2.24,682.7,M,-5.6,M,,*40
$GPGSA,A,3,20,24,29,02,,,,,,,,,3.37,2.24,2.52*09
$GPGSV,2,1,08,02,69,120,36,05,,,33,06,,,17,11,56,119,33*76
$GPGSV,2,2,08,12,,,33,20,26,060,37,24,62,330,37,29,33,269,33*46
$GPGLL,2254.09436,S,04701.54005,W,133855.00,A,A*60
$GPRMC,133856.00,A,2254.09219,S,04701.53174,W,28.728,73.90,221121,,,A*66
$GPVTG,73.90,T,,M,28.728,N,53.204,K,A*07
$GPGGA,133856.00,2254.09219,S,04701.53174,W,1,04,2.24,683.2,M,-5.6,M,,*4C
$GPGSA,A,3,20,24,29,02,,,,,,,,,3.37,2.24,2.52*09
$GPGSV,2,1,08,02,69,120,36,05,,,33,06,,,18,11,56,119,32*78
$GPGSV,2,2,08,12,,,33,20,26,060,37,24,62,330,37,29,33,269,33*46
$GPGLL,2254.09219,S,04701.53174,W,133856.00,A,A*68
$GPRMC,133857.00,A,2254.09001,S,04701.52349,W,28.502,73.44,221121,,,A*62
$GPVTG,73.44,T,,M,28.502,N,52.786,K,A*0A
$GPGGA,133857.00,2254.09001,S,04701.52349,W,1,04,2.24,683.7,M,-5.6,M,,*4E
$GPGSA,A,3,20,24,29,02,,,,,,,,,3.37,2.24,2.52*09
$GPGSV,2,1,08,02,69,120,32,05,,,30,06,,,28,11,56,119,30*7E
$GPGSV,2,2,08,12,,,28,20,26,060,37,24,62,331,36,29,33,269,32*4D
$GPGLL,2254.09001,S,04701.52349,W,133857.00,A,A*6F
$GPRMC,133858.00,A,2254.08801,S,04701.51511,W,28.750,74.69,221121,,,A*61
$GPVTG,74.69,T,,M,28.750,N,53.244,K,A*0D
$GPGGA,133858.00,2254.08801,S,04701.51511,W,1,04,2.24,684.2,M,-5.6,M,,*42
$GPGSA,A,3,20,24,29,02,,,,,,,,,3.37,2.24,2.52*09
$GPGSV,2,1,08,02,69,120,37,05,,,33,06,,,34,11,56,119,31*74
$GPGSV,2,2,08,12,,,27,20,26,060,36,24,62,331,36,29,33,269,32*43
$GPGLL,2254.08801,S,04701.51511,W,133858.00,A,A*61
$GPRMC,133859.00,A,2254.08597,S,04701.50685,W,28.294,74.32,221121,,,A*6E
$GPVTG,74.32,T,,M,28.294,N,52.401,K,A*08
$GPGGA,133859.00,2254.08597,S,04701.50685,W,1,04,2.24,684.6,M,-5.6,M,,*4A
$GPGSA,A,3,20,24,29,02,,,,,,,,,3.37,2.24,2.52*09
$GPGSV,2,1,08,02,69,120,35,05,,,33,06,,,34,11,56,119,31*76
$GPGSV,2,2,08,12,,,33,20,26,060,36,24,62,331,36,29,33,269,33*47
$GPGLL,2254.08597,S,04701.50685,W,133859.00,A,A*6D
$GPRMC,133900.00,A,2254.08383,S,04701.49876,W,27.855,73.69,221121,,,A*6B
$GPVTG,73.69,T,,M,27.855,N,51.588,K,A*0A
$GPGGA,133900.00,2254.08383,S,04701.49876,W,1,04,2.24,684.9,M,-5.6,M,,*41
$GPGSA,A,3,20,24,29,02,,,,,,,,,3.37,2.24,2.52*09
$GPGSV,2,1,08,02,69,120,38,05,,,35,06,,,36,11,56,119,32*7C
$GPGSV,2,2,08,12,,,33,20,26,060,37,24,62,331,37,29,33,269,33*47
$GPGLL,2254.08383,S,04701.49876,W,133900.00,A,A*69
$GPRMC,133901.00,A,2254.08176,S,04701.49084,W,27.128,73.88,221121,,,A*6B
$GPVTG,73.88,T,,M,27.128,N,50.241,K,A*05
$GPGGA,133901.00,2254.08176,S,04701.49084,W,1,04,2.24,685.2,M,-5.6,M,,*47
$GPGSA,A,3,20,24,29,02,,,,,,,,,3.37,2.24,2.52*09
$GPGSV,2,1,08,02,69,120,37,05,,,32,06,,,36,11,56,119,32*74
$GPGSV,2,2,08,12,,,33,20,26,060,34,24,62,331,37,29,33,269,33*44
$GPGLL,2254.08176,S,04701.49084,W,133901.00,A,A*65
$GPRMC,133902.00,A,2254.07957,S,04701.48293,W,27.550,73.66,221121,,,A*62
$GPVTG,73.66,T,,M,27.550,N,51.022,K,A*08
$GPGGA,133902.00,2254.07957,S,04701.48293,W,1,04,2.24,685.5,M,-5.6,M,,*42
$GPGSA,A,3,20,24,29,02,,,,,,,,,3.37,2.24,2.52*09
$GPGSV,2,1,08,02,69,120,37,05,,,31,06,,,35,11,56,119,32*74
$GPGSV,2,2,08,12,,,32,20,26,060,35,24,62,331,34,29,33,269,32*46
$GPGLL,2254.07957,S,04701.48293,W,133902.00,A,A*67
$GPRMC,133903.00,A,2254.07738,S,04701.47494,W,27.825,73.68,221121,,,A*6B
$GPVTG,73.68,T,,M,27.825,N,51.531,K,A*0E
$GPGGA,133903.00,2254.07738,S,04701.47494,W,1,04,2.24,686.0,M,-5.6,M,,*4C
$GPGSA,A,3,20,24,29,02,,,,,,,,,3.37,2.24,2.52*09
$GPGSV,2,1,08,02,69,120,37,05,,,31,06,,,35,11,56,119,32*74
$GPGSV,2,2,08,12,,,32,20,26,060,32,24,62,331,35,29,33,269,26*45
$GPGLL,2254.07738,S,04701.47494,W,133903.00,A,A*6F
$GPRMC,133904.00,A,2254.07517,S,04701.46704,W,27.396,73.44,221121,,,A*65
$GPVTG,73.44,T,,M,27.396,N,50.738,K,A*09
$GPGGA,133904.00,2254.07517,S,04701.46704,W,1,04,2.24,686.3,M,-5.6,M,,*4C
$GPGSA,A,3,20,24,29,02,,,,,,,,,3.37,2.24,2.53*08
$GPGSV,2,1,08,02,69,120,37,05,,,31,06,,,35,11,56,119,33*75
$GPGSV,2,2,08,12,,,28,20,26,060,35,24,62,331,37,29,33,269,26*4B
$GPGLL,2254.07517,S,04701.46704,W,133904.00,A,A*6C
$GPRMC,133905.00,A,2254.07308,S,04701.45921,W,27.289,73.40,221121,,,A*6D
$GPVTG,73.40,T,,M,27.289,N,50.539,K,A*01
$GPGGA,133905.00,2254.07308,S,04701.45921,W,1,04,2.23,686.2,M,-5.6,M,,*49
$GPGSA,A,3,20,24,29,02,,,,,,,,,3.37,2.23,2.53*0F
$GPGSV,2,1,08,02,69,120,37,05,,,32,06,,,34,11,56,119,34*70
$GPGSV,2,2,08,12,,,29,20,26,060,37,24,62,331,37,29,33,269,27*49
$GPGLL,2254.07308,S,04701.45921,W,133905.00,A,A*6F
$GPRMC,133906.00,A,2254.07103,S,04701.45139,W,27.435,73.50,221121,,,A*66
$GPVTG,73.50,T,,M,27.435,N,50.810,K,A*07
$GPGGA,133906.00,2254.07103,S,04701.45139,W,1,04,2.23,685.8,M,-5.6,M,,*4B
$GPGSA,A,3,20,24,29,02,,,,,,,,,3.37,2.23,2.53*0F
$GPGSV,2,1,08,02,69,120,36,05,,,34,06,,,35,11,56,119,33*71
$GPGSV,2,2,08,12,,,31,20,26,060,36,24,62,331,35,29,33,269,28*4C
$GPGLL,2254.07103,S,04701.45139,W,133906.00,A,A*64
$GPRMC,133907.00,A,2254.06896,S,04701.44352,W,27.438,74.06,221121,,,A*64
$GPVTG,74.06,T,,M,27.438,N,50.816,K,A*08
$GPGGA,133907.00,2254.06896,S,04701.44352,W,1,04,2.23,685.4,M,-5.6,M,,*4C
$GPGSA,A,3,20,24,29,02,,,,,,,,,3.37,2.23,2.53*0F
$GPGSV,2,1,08,02,69,120,36,05,,,34,06,,,35,11,56,119,33*71
$GPGSV,2,2,08,12,,,32,20,26,060,36,24,62,331,34,29,33,269,28*4E
$GPGLL,2254.06896,S,04701.44352,W,133907.00,A,A*6F
$GPRMC,133908.00,A,2254.06693,S,04701.43564,W,27.126,74.87,221121,,,A*67
$GPVTG,74.87,T,,M,27.126,N,50.237,K,A*02
$GPGGA,133908.00,2254.06693,S,04701.43564,W,1,04,2.23,685.1,M,-5.6,M,,*49
$GPGSA,A,3,20,24,29,02,,,,,,,,,3.37,2.23,2.53*0F
$GPGSV,2,1,08,02,69,120,36,05,,,25,06,,,24,11,56,119,33*71
$GPGSV,2,2,08,12,,,32,20,26,060,28,24,62,331,34,29,33,269,28*41
$GPGLL,2254.06693,S,04701.43564,W,133908.00,A,A*6F
$GPRMC,133909.00,A,2254.06490,S,04701.42776,W,27.456,74.09,221121,,,A*63
$GPVTG,74.09,T,,M,27.456,N,50.848,K,A*04
$GPGGA,133909.00,2254.06490,S,04701.42776,W,1,04,2.23,684.7,M,-5.6,M,,*4E
$GPGSA,A,3,20,24,29,02,,,,,,,,,3.37,2.23,2.53*0F
$GPGSV,2,1,08,02,69,120,35,05,,,24,06,,,22,11,56,119,29*7E
$GPGSV,2,2,08,12,,,32,20,26,060,29,24,62,331,29,29,33,269,28*4C
$GPGLL,2254.06490,S,04701.42776,W,133909.00,A,A*6F
$GPRMC,133910.00,A,2254.06289,S,04701.42014,W,26.739,73.69,221121,,,A*6C
$GPVTG,73.69,T,,M,26.739,N,49.522,K,A*07
$GPGGA,133910.00,2254.06289,S,04701.42014,W,1,04,2.23,683.4,M,-5.6,M,,*4F
$GPGSA,A,3,20,24,29,02,,,,,,,,,3.37,2.23,2.53*0F
$GPGSV,2,1,08,02,69,120,38,05,,,23,06,,,33,11,56,119,32*7E
$GPGSV,2,2,08,12,,,33,20,26,060,36,24,62,331,31,29,33,269,27*45
$GPGLL,2254.06289,S,04701.42014,W,133910.00,A,A*6A
$GPRMC,133911.00,A,2254.06075,S,04701.41220,W,27.763,73.72,221121,,,A*6E
$GPVTG,73.72,T,,M,27.763,N,51.416,K,A*0C
$GPGGA,133911.00,2254.06075,S,04701.41220,W,1,04,2.23,682.6,M,-5.6,M,,*4A
$GPGSA,A,3,20,24,29,02,,,,,,,,,3.37,2.23,2.53*0F
$GPGSV,2,1,08,02,69,120,37,05,,,31,06,,,34,11,56,119,33*74
$GPGSV,2,2,08,12,,,33,20,26,060,37,24,62,331,30,29,33,269,31*42
$GPGLL,2254.06075,S,04701.41220,W,133911.00,A,A*6C
$GPRMC,133912.00,A,2254.05863,S,04701.40416,W,28.035,73.94,221121,,,A*60
$GPVTG,73.94,T,,M,28.035,N,51.921,K,A*06
$GPGGA,133912.00,2254.05863,S,04701.40416,W,1,04,2.23,681.4,M,-5.6,M,,*46
$GPGSA,A,3,20,24,29,02,,,,,,,,,3.37,2.23,2.53*0F
$GPGSV,2,1,08,02,69,120,39,05,,,37,06,,,36,11,56,119,33*7E
$GPGSV,2,2,08,12,,,34,20,26,060,37,24,62,331,34,29,33,269,30*40
$GPGLL,2254.05863,S,04701.40416,W,133912.00,A,A*61
$GPRMC,133913.00,A,2254.05657,S,04701.39587,W,28.464,74.84,221121,,,A*69
$GPVTG,74.84,T,,M,28.464,N,52.716,K,A*09
$GPGGA,133913.00,2254.05657,S,04701.39587,W,1,04,2.23,680.2,M,-5.6,M,,*4E
$GPGSA,A,3,20,24,29,02,,,,,,,,,3.37,2.23,2.53*0F
$GPGSV,3,1,09,02,69,120,38,05,,,35,06,,,36,11,56,119,33*7D
$GPGSV,3,2,09,12,,,33,19,00,126,,20,26,060,38,24,62,331,35*41
$GPGSV,3,3,09,29,33,269,24*40
$GPGLL,2254.05657,S,04701.39587,W,133913.00,A,A*6E
$GPRMC,133914.00,A,2254.05474,S,04701.38766,W,28.706,74.96,221121,,,A*65
$GPVTG,74.96,T,,M,28.706,N,53.163,K,A*08
$GPGGA,133914.00,2254.05474,S,04701.38766,W,1,04,2.23,679.0,M,-5.6,M,,*42
$GPGSA,A,3,20,24,29,02,,,,,,,,,3.37,2.23,2.53*0F
$GPGSV,3,1,09,02,69,120,38,05,,,36,06,,,37,11,56,119,34*78
$GPGSV,3,2,09,12,,,34,19,00,126,,20,26,060,38,24,62,331,35*46
$GPGSV,3,3,09,29,33,269,27*43
$GPGLL,2254.05474,S,04701.38766,W,133914.00,A,A*66
$GPRMC,133915.00,A,2254.05281,S,04701.37935,W,28.705,74.93,221121,,,A*69
$GPVTG,74.93,T,,M,28.705,N,53.162,K,A*0F
$GPGGA,133915.00,2254.05281,S,04701.37935,W,1,04,2.23,677.9,M,-5.6,M,,*4F
$GPGSA,A,3,20,24,29,02,,,,,,,,,3.37,2.23,2.53*0F
$GPGSV,3,1,09,02,69,120,38,05,,,36,06,,,37,11,56,119,34*78
$GPGSV,3,2,09,12,,,34,19,00,126,,20,26,060,38,24,62,331,35*46
$GPGSV,3,3,09,29,33,269,29*4D
$GPGLL,2254.05281,S,04701.37935,W,133915.00,A,A*6C
$GPRMC,133916.00,A,2254.05090,S,04701.37105,W,28.724,75.20,221121,,,A*69
$GPVTG,75.20,T,,M,28.724,N,53.198,K,A*00
$GPGGA,133916.00,2254.05090,S,04701.37105,W,1,04,2.23,677.1,M,-5.6,M,,*4D
$GPGSA,A,3,20,24,29,02,,,,,,,,,3.37,2.23,2.53*0F
$GPGSV,3,1,10,02,69,120,38,05,,,36,06,,,37,11,56,119,35*71
$GPGSV,3,2,10,12,,,33,15,,,33,19,00,126,,20,26,060,38*78
$GPGSV,3,3,10,24,62,331,36,29,33,269,29*73
$GPGLL,2254.05090,S,04701.37105,W,133916.00,A,A*66
$GPRMC,133917.00,A,2254.04876,S,04701.36269,W,28.957,75.38,221121,,,A*62
$GPVTG,75.38,T,,M,28.957,N,53.629,K,A*0E
$GPGGA,133917.00,2254.04876,S,04701.36269,W,1,04,2.22,676.6,M,-5.6,M,,*42
$GPGSA,A,3,20,24,29,02,,,,,,,,,3.37,2.22,2.53*0E
$GPGSV,3,1,10,02,69,120,38,05,,,34,06,,,34,11,56,119,34*71
$GPGSV,3,2,10,12,,,33,15,,,33,19,00,126,,20,26,060,38*78
$GPGSV,3,3,10,24,62,331,36,29,33,269,29*73
$GPGLL,2254.04876,S,04701.36269,W,133917.00,A,A*6E
$GPRMC,133918.00,A,2254.04677,S,04701.35424,W,29.366,75.21,221121,,,A*6F
$GPVTG,75.21,T,,M,29.366,N,54.385,K,A*0B
$GPGGA,133918.00,2254.04677,S,04701.35424,W,1,04,2.22,675.9,M,-5.6,M,,*42
$GPGSA,A,3,20,24,29,02,,,,,,,,,3.37,2.22,2.53*0E
$GPGSV,3,1,10,02,69,120,38,05,,,37,06,,,36,11,56,119,35*71
$GPGSV,3,2,10,12,,,34,15,,,22,19,00,126,,20,26,060,39*7E
$GPGSV,3,3,10,24,62,331,35,29,33,269,29*70
$GPGLL,2254.04677,S,04701.35424,W,133918.00,A,A*62
$GPRMC,133919.00,A,2254.04472,S,04701.34576,W,29.530,74.40,221121,,,A*6D
$GPVTG,74.40,T,,M,29.530,N,54.690,K,A*09
$GPGGA,133919.00,2254.04472,S,04701.34576,W,1,04,2.22,674.9,M,-5.6,M,,*42
$GPGSA,A,3,20,24,29,02,,,,,,,,,3.37,2.22,2.53*0E
$GPGSV,3,1,10,02,69,120,38,05,,,34,06,,,37,11,56,119,35*73
$GPGSV,3,2,10,12,,,34,15,,,23,19,00,126,,20,26,060,38*7E
$GPGSV,3,3,10,24,62,331,35,29,33,269,29*70
$GPGLL,2254.04472,S,04701.34576,W,133919.00,A,A*63
$GPRMC,133920.00,A,2254.04258,S,04701.33721,W,29.556,74.62,221121,,,A*6E
$GPVTG,74.62,T,,M,29.556,N,54.738,K,A*0A
$GPGGA,133920.00,2254.04258,S,04701.33721,W,1,04,2.22,674.0,M,-5.6,M,,*48
$GPGSA,A,3,20,24,29,02,,,,,,,,,3.37,2.22,2.53*0E
$GPGSV,3,1,10,02,69,120,38,05,,,37,06,,,37,11,56,119,35*70
$GPGSV,3,2,10,12,,,34,15,,,29,19,00,126,,20,26,060,38*74
$GPGSV,3,3,10,24,62,331,36,29,33,269,29*73
$GPGLL,2254.04258,S,04701.33721,W,133920.00,A,A*60
$GPRMC,133921.00,A,2254.04042,S,04701.32857,W,29.699,74.72,221121,,,A*68
$GPVTG,74.72,T,,M,29.699,N,55.003,K,A*05
$GPGGA,133921.00,2254.04042,S,04701.32857,W,1,04,2.22,673.4,M,-5.6,M,,*4C
$GPGSA,A,3,20,24,29,02,,,,,,,,,3.37,2.22,2.53*0E
$GPGSV,3,1,10,02,69,120,38,05,,,34,06,,,37,11,56,119,34*72
$GPGSV,3,2,10,12,,,34,15,,,31,19,00,126,,20,26,060,39*7C
$GPGSV,3,3,10,24,62,331,36,29,33,269,29*73
$GPGLL,2254.04042,S,04701.32857,W,133921.00,A,A*67
$GPRMC,133922.00,A,2254.03824,S,04701.31987,W,30.070,74.38,221121,,,A*6C
$GPVTG,74.38,T,,M,30.070,N,55.690,K,A*0E
$GPGGA,133922.00,2254.03824,S,04701.31987,W,1,04,2.22,672.7,M,-5.6,M,,*4D
$GPGSA,A,3,20,24,29,02,,,,,,,,,3.37,2.22,2.53*0E
$GPGSV,3,1,10,02,69,120,38,05,,,36,06,,,37,11,56,119,37*73
$GPGSV,3,2,10,12,,,34,15,,,26,19,00,126,,20,26,060,39*7A
$GPGSV,3,3,10,24,62,331,36,29,33,269,29*73
$GPGLL,2254.03824,S,04701.31987,W,133922.00,A,A*64
$GPRMC,133923.00,A,2254.03604,S,04701.31117,W,30.138,74.28,221121,,,A*6C
$GPVTG,74.28,T,,M,30.138,N,55.815,K,A*01
$GPGGA,133923.00,2254.03604,S,04701.31117,W,1,04,2.22,671.8,M,-5.6,M,,*4D
$GPGSA,A,3,20,24,29,02,,,,,,,,,3.37,2.22,2.53*0E
$GPGSV,3,1,10,02,69,120,38,05,,,26,06,,,37,11,56,119,36*73
$GPGSV,3,2,10,12,,,33,15,,,25,19,00,126,,20,26,060,39*7E
$GPGSV,3,3,10,24,62,331,36,29,33,269,29*73
$GPGLL,2254.03604,S,04701.31117,W,133923.00,A,A*68
$GPRMC,133924.00,A,2254.03382,S,04701.30250,W,30.003,74.14,221121,,,A*67
$GPVTG,74.14,T,,M,30.003,N,55.565,K,A*0D
$GPGGA,133924.00,2254.03382,S,04701.30250,W,1,04,2.22,670.8,M,-5.6,M,,*41
$GPGSA,A,3,20,24,29,02,,,,,,,,,3.37,2.22,2.53*0E
$GPGSV,3,1,10,02,69,120,39,05,,,24,06,,,37,11,56,119,33*75
$GPGSV,3,2,10,12,,,34,15,,,25,19,00,126,,20,26,060,38*78
$GPGSV,3,3,10,24,62,331,36,29,33,269,30*7B
$GPGLL,2254.03382,S,04701.30250,W,133924.00,A,A*65
$GPRMC,133925.00,A,2254.03165,S,04701.29385,W,29.904,74.79,221121,,,A*61
$GPVTG,74.79,T,,M,29.904,N,55.381,K,A*0C
$GPGGA,133925.00,2254.03165,S,04701.29385,W,1,05,1.49,669.8,M,-5.6,M,,*4D
$GPGSA,A,3,20,24,12,29,02,,,,,,,,2.91,1.49,2.50*0D
$GPGSV,3,1,10,02,69,120,39,05,,,24,06,,,37,11,56,119,35*73
$GPGSV,3,2,10,12,52,181,35,15,,,24,19,00,126,,20,26,060,39*46
$GPGSV,3,3,10,24,62,331,36,29,33,269,30*7B
$GPGLL,2254.03165,S,04701.29385,W,133925.00,A,A*6E
$GPRMC,133926.00,A,2254.02951,S,04701.28517,W,29.739,74.96,221121,,,A*61
$GPVTG,74.96,T,,M,29.739,N,55.077,K,A*07
$GPGGA,133926.00,2254.02951,S,04701.28517,W,1,05,1.49,669.1,M,-5.6,M,,*45
$GPGSA,A,3,20,24,12,29,02,,,,,,,,2.91,1.49,2.50*0D
$GPGSV,3,1,10,02,69,120,39,05,,,37,06,,,38,11,56,119,35*7E
$GPGSV,3,2,10,12,52,181,35,15,,,24,19,00,126,,20,26,060,39*46
$GPGSV,3,3,10,24,62,331,36,29,33,269,30*7B
$GPGLL,2254.02951,S,04701.28517,W,133926.00,A,A*6F
$GPRMC,133927.00,A,2254.02738,S,04701.27652,W,29.869,74.89,221121,,,A*68
$GPVTG,74.89,T,,M,29.869,N,55.318,K,A*09
$GPGGA,133927.00,2254.02738,S,04701.27652,W,1,05,1.49,668.4,M,-5.6,M,,*4C
$GPGSA,A,3,20,24,12,29,02,,,,,,,,2.91,1.49,2.50*0D
$GPGSV,3,1,10,02,69,120,39,05,,,31,06,,,28,11,56,119,35*79
$GPGSV,3,2,10,12,52,181,32,15,,,26,19,00,126,,20,26,060,38*42
$GPGSV,3,3,10,24,62,331,36,29,33,269,30*7B
$GPGLL,2254.02738,S,04701.27652,W,133927.00,A,A*62
$GPRMC,133928.00,A,2254.02525,S,04701.26789,W,29.403,75.32,221121,,,A*6E
$GPVTG,75.32,T,,M,29.403,N,54.455,K,A*07
$GPGGA,133928.00,2254.02525,S,04701.26789,W,1,05,1.49,667.9,M,-5.6,M,,*49
$GPGSA,A,3,20,24,12,29,02,,,,,,,,2.91,1.49,2.50*0D
$GPGSV,3,1,10,02,69,120,39,05,,,31,06,,,36,11,56,119,34*77
$GPGSV,3,2,10,12,52,181,32,15,,,26,19,00,126,,20,26,060,32*48
$GPGSV,3,3,10,24,62,331,36,29,33,269,29*73
$GPGLL,2254.02525,S,04701.26789,W,133928.00,A,A*65
$GPRMC,133929.00,A,2254.02311,S,04701.25929,W,29.446,75.38,221121,,,A*62
$GPVTG,75.38,T,,M,29.446,N,54.533,K,A*0D
$GPGGA,133929.00,2254.02311,S,04701.25929,W,1,05,1.49,667.5,M,-5.6,M,,*42
$GPGSA,A,3,20,24,12,29,02,,,,,,,,2.92,1.49,2.50*0E
$GPGSV,3,1,10,02,69,120,39,05,,,25,06,,,28,11,56,119,34*7D
$GPGSV,3,2,10,12,52,181,33,15,,,24,19,00,126,,20,26,060,31*48
$GPGSV,3,3,10,24,62,331,34,29,33,269,31*78
$GPGLL,2254.02311,S,04701.25929,W,133929.00,A,A*62
$GPRMC,133930.00,A,2254.02106,S,04701.25074,W,28.714,76.52,221121,,,A*65
$GPVTG,76.52,T,,M,28.714,N,53.178,K,A*0B
$GPGGA,133930.00,2254.02106,S,04701.25074,W,1,05,1.49,667.6,M,-5.6,M,,*4C
$GPGSA,A,3,20,24,12,29,02,,,,,,,,2.92,1.49,2.50*0E
$GPGSV,3,1,10,02,69,120,39,05,,,26,06,,,27,11,56,119,34*71
$GPGSV,3,2,10,12,52,181,33,15,,,23,19,00,126,,20,26,060,36*48
$GPGSV,3,3,10,24,62,331,33,29,33,269,30*7E
$GPGLL,2254.02106,S,04701.25074,W,133930.00,A,A*6F
$GPRMC,133931.00,A,2254.01906,S,04701.24245,W,27.952,75.73,221121,,,A*6D
$GPVTG,75.73,T,,M,27.952,N,51.768,K,A*0D
$GPGGA,133931.00,2254.01906,S,04701.24245,W,1,05,1.49,667.9,M,-5.6,M,,*48
$GPGSA,A,3,20,24,12,29,02,,,,,,,,2.92,1.49,2.50*0E
$GPGSV,3,1,10,02,69,120,39,05,,,26,06,,,35,11,56,119,34*72
$GPGSV,3,2,10,12,52,181,34,15,,,29,19,00,126,,20,26,060,35*46
$GPGSV,3,3,10,24,62,331,37,29,33,269,33*79
$GPGLL,2254.01906,S,04701.24245,W,133931.00,A,A*64
$GPRMC,133932.00,A,2254.01698,S,04701.23463,W,26.520,73.73,221121,,,A*6D
$GPVTG,73.73,T,,M,26.520,N,49.115,K,A*06
$GPGGA,133932.00,2254.01698,S,04701.23463,W,1,05,1.49,668.1,M,-5.6,M,,*41
$GPGSA,A,3,20,24,12,29,02,,,,,,,,2.92,1.49,2.50*0E
$GPGSV,3,1,10,02,69,120,31,05,,,26,06,,,28,11,56,119,31*73
$GPGSV,3,2,10,12,52,181,31,15,,,20,19,00,126,,20,26,060,33*4C
$GPGSV,3,3,10,24,62,331,35,29,33,269,33*7B
$GPGLL,2254.01698,S,04701.23463,W,133932.00,A,A*6A
$GPRMC,133933.00,A,2254.01558,S,04701.22725,W,24.725,78.85,221121,,,A*64
$GPVTG,78.85,T,,M,24.725,N,45.790,K,A*06
$GPGGA,133933.00,2254.01558,S,04701.22725,W,1,05,1.49,667.9,M,-5.6,M,,*48
$GPGSA,A,3,20,24,12,29,02,,,,,,,,2.92,1.49,2.51*0F
$GPGSV,3,1,10,02,69,120,32,05,,,26,06,,,33,11,56,119,29*73
$GPGSV,3,2,10,12,52,181,27,15,,,20,19,00,126,,20,26,060,36*4E
$GPGSV,3,3,10,24,62,331,38,29,33,269,30*75
$GPGLL,2254.01558,S,04701.22725,W,133933.00,A,A*64
$GPRMC,133934.00,A,2254.01437,S,04701.22033,W,23.045,78.96,221121,,,A*6F
$GPVTG,78.96,T,,M,23.045,N,42.679,K,A*03
$GPGGA,133934.00,2254.01437,S,04701.22033,W,1,05,1.49,667.9,M,-5.6,M,,*47
$GPGSA,A,3,20,24,12,29,02,,,,,,,,2.92,1.49,2.51*0F
$GPGSV,3,1,10,02,69,120,34,05,,,31,06,,,26,11,56,119,28*76
$GPGSV,3,2,10,12,52,181,26,15,,,19,19,00,126,,20,26,060,38*4B
$GPGSV,3,3,10,24,62,331,39,29,33,269,26*73
$GPGLL,2254.01437,S,04701.22033,W,133934.00,A,A*6B
$GPRMC,133935.00,A,2254.01299,S,04701.21343,W,22.657,78.69,221121,,,A*6F
$GPVTG,78.69,T,,M,22.657,N,41.961,K,A*02
$GPGGA,133935.00,2254.01299,S,04701.21343,W,1,05,1.49,669.2,M,-5.6,M,,*46
$GPGSA,A,3,20,24,12,29,02,,,,,,,,2.92,1.49,2.51*0F
$GPGSV,3,1,09,02,69,120,40,05,,,26,06,,,37,11,56,119,33*71
$GPGSV,3,2,09,12,52,181,32,19,00,126,,20,26,060,40,24,62,331,39*7C
$GPGSV,3,3,09,29,33,269,35*40
$GPGLL,2254.01299,S,04701.21343,W,133935.00,A,A*6F
$GPRMC,133936.00,A,2254.01145,S,04701.20668,W,22.760,76.14,221121,,,A*62
$GPVTG,76.14,T,,M,22.760,N,42.152,K,A*08
$GPGGA,133936.00,2254.01145,S,04701.20668,W,1,05,1.49,670.7,M,-5.6,M,,*47
$GPGSA,A,3,20,24,12,29,02,,,,,,,,2.92,1.49,2.51*0F
$GPGSV,3,1,10,02,69,120,40,05,,,26,06,,,31,11,56,119,33*7F
$GPGSV,3,2,10,12,52,181,32,15,,,25,19,00,126,,20,26,060,38*41
$GPGSV,3,3,10,24,62,331,41,29,33,269,37*7C
$GPGLL,2254.01145,S,04701.20668,W,133936.00,A,A*63
$GPRMC,133937.00,A,2254.00979,S,04701.20003,W,22.882,74.95,221121,,,A*66
$GPVTG,74.95,T,,M,22.882,N,42.377,K,A*05
$GPGGA,133937.00,2254.00979,S,04701.20003,W,1,05,1.49,671.6,M,-5.6,M,,*4B
$GPGSA,A,3,20,24,12,29,02,,,,,,,,2.92,1.49,2.51*0F
$GPGSV,3,1,10,02,69,120,38,05,,,35,06,,,27,11,56,119,32*74
$GPGSV,3,2,10,12,52,181,25,15,,,22,19,00,126,,20,26,060,40*4F
$GPGSV,3,3,10,24,62,331,39,29,33,269,35*71
$GPGLL,2254.00979,S,04701.20003,W,133937.00,A,A*6F
$GPRMC,133938.00,A,2254.00812,S,04701.19338,W,22.979,74.68,221121,,,A*63
$GPVTG,74.68,T,,M,22.979,N,42.556,K,A*07
$GPGGA,133938.00,2254.00812,S,04701.19338,W,1,05,1.49,672.1,M,-5.6,M,,*4D
$GPGSA,A,3,20,24,12,29,02,,,,,,,,2.92,1.49,2.51*0F
$GPGSV,3,1,10,02,69,120,39,05,,,35,06,,,37,11,56,119,31*77
$GPGSV,3,2,10,12,52,181,31,15,,,28,19,00,126,,20,26,060,39*4E
$GPGSV,3,3,10,24,62,331,39,29,33,269,32*76
$GPGLL,2254.00812,S,04701.19338,W,133938.00,A,A*6D
$GPRMC,133939.00,A,2254.00622,S,04701.18667,W,23.495,74.18,221121,,,A*68
$GPVTG,74.18,T,,M,23.495,N,43.513,K,A*0E
$GPGGA,133939.00,2254.00622,S,04701.18667,W,1,05,1.49,673.4,M,-5.6,M,,*4B
$GPGSA,A,3,20,24,12,29,02,,,,,,,,2.92,1.49,2.51*0F
$GPGSV,3,1,10,02,69,120,38,05,,,33,06,,,35,11,56,119,31*72
$GPGSV,3,2,10,12,52,181,31,15,,,22,19,00,126,,20,26,060,38*45
$GPGSV,3,3,10,24,62,331,39,29,33,269,34*70
$GPGLL,2254.00622,S,04701.18667,W,133939.00,A,A*6F
$GPRMC,133940.00,A,2254.00445,S,04701.17991,W,23.551,74.26,221121,,,A*68
$GPVTG,74.26,T,,M,23.551,N,43.617,K,A*0D
$GPGGA,133940.00,2254.00445,S,04701.17991,W,1,05,1.49,674.5,M,-5.6,M,,*49
$GPGSA,A,3,20,24,12,29,02,,,,,,,,2.92,1.49,2.51*0F
$GPGSV,3,1,10,02,69,120,38,05,,,36,06,,,30,11,56,119,25*77
$GPGSV,3,2,10,12,52,181,31,15,,,25,19,00,126,,20,26,060,38*42
$GPGSV,3,3,10,24,62,331,39,29,33,269,34*70
$GPGLL,2254.00445,S,04701.17991,W,133940.00,A,A*6B
$GPRMC,133941.00,A,2254.00270,S,04701.17302,W,23.799,75.26,221121,,,A*6E
$GPVTG,75.26,T,,M,23.799,N,44.076,K,A*0C
$GPGGA,133941.00,2254.00270,S,04701.17302,W,1,05,1.49,675.3,M,-5.6,M,,*4F
$GPGSA,A,3,20,24,12,29,02,,,,,,,,2.92,1.49,2.51*0F
$GPGSV,3,1,09,02,69,120,37,05,,,29,06,,,37,11,56,119,27*7B
$GPGSV,3,2,09,12,52,181,31,19,00,126,,20,26,060,36,24,62,331,39*7E
$GPGSV,3,3,09,29,33,269,33*46
$GPGLL,2254.00270,S,04701.17302,W,133941.00,A,A*6A
$GPRMC,133942.00,A,2254.00102,S,04701.16604,W,24.056,75.42,221121,,,A*68
$GPVTG,75.42,T,,M,24.056,N,44.551,K,A*0D
$GPGGA,133942.00,2254.00102,S,04701.16604,W,1,05,1.49,676.1,M,-5.6,M,,*49
$GPGSA,A,3,20,24,12,29,02,,,,,,,,2.92,1.49,2.51*0F
$GPGSV,3,1,10,02,69,120,37,05,,,27,06,,,37,11,56,119,27*7D
$GPGSV,3,2,10,12,52,181,32,15,,,26,19,00,126,,20,26,060,38*42
$GPGSV,3,3,10,24,62,331,39,29,33,269,32*76
$GPGLL,2254.00102,S,04701.16604,W,133942.00,A,A*6D
$GPRMC,133943.00,A,2253.99933,S,04701.15888,W,24.499,75.64,221121,,,A*6E
$GPVTG,75.64,T,,M,24.499,N,45.372,K,A*08
$GPGGA,133943.00,2253.99933,S,04701.15888,W,1,05,1.49,676.9,M,-5.6,M,,*44
$GPGSA,A,3,20,24,12,29,02,,,,,,,,2.92,1.49,2.51*0F
$GPGSV,3,1,10,02,69,120,38,05,,,26,06,,,36,11,56,119,28*7D
$GPGSV,3,2,10,12,52,181,32,15,,,25,19,00,126,,20,26,061,39*41
$GPGSV,3,3,10,24,62,331,39,29,33,269,31*75
$GPGLL,2253.99933,S,04701.15888,W,133943.00,A,A*68
$GPRMC,133944.00,A,2253.99753,S,04701.15167,W,24.930,75.54,221121,,,A*64
$GPVTG,75.54,T,,M,24.930,N,46.170,K,A*06
$GPGGA,133944.00,2253.99753,S,04701.15167,W,1,05,1.49,677.9,M,-5.6,M,,*42
$GPGSA,A,3,20,24,12,29,02,,,,,,,,2.92,1.49,2.51*0F
$GPGSV,3,1,10,02,69,120,38,05,,,35,06,,,36,11,56,119,30*76
$GPGSV,3,2,10,12,52,181,30,15,,,21,19,00,126,,20,26,061,38*46
$GPGSV,3,3,10,24,62,331,39,29,33,269,32*76
$GPGLL,2253.99753,S,04701.15167,W,133944.00,A,A*6F
$GPRMC,133945.00,A,2253.99575,S,04701.14435,W,25.313,75.28,221121,,,A*61
$GPVTG,75.28,T,,M,25.313,N,46.880,K,A*01
$GPGGA,133945.00,2253.99575,S,04701.14435,W,1,05,1.49,678.7,M,-5.6,M,,*47
$GPGSA,A,3,20,24,12,29,02,,,,,,,,2.92,1.49,2.51*0F
$GPGSV,3,1,10,02,69,120,38,05,,,37,06,,,37,11,56,119,29*7D
$GPGSV,3,2,10,12,52,181,29,15,,,21,19,00,126,,20,26,061,37*41
$GPGSV,3,3,10,24,62,331,39,29,33,269,32*76
$GPGLL,2253.99575,S,04701.14435,W,133945.00,A,A*6B
$GPRMC,133946.00,A,2253.99392,S,04701.13698,W,25.499,75.05,221121,,,A*65
$GPVTG,75.05,T,,M,25.499,N,47.223,K,A*09
$GPGGA,133946.00,2253.99392,S,04701.13698,W,1,05,1.49,679.6,M,-5.6,M,,*49
$GPGSA,A,3,20,24,12,29,02,,,,,,,,2.92,1.49,2.51*0F
$GPGSV,3,1,10,02,69,121,39,05,,,34,06,,,37,11,56,119,29*7E
$GPGSV,3,2,10,12,52,181,29,15,,,19,19,00,126,,20,26,061,38*45
$GPGSV,3,3,10,24,62,331,40,29,33,269,33*79
$GPGLL,2253.99392,S,04701.13698,W,133946.00,A,A*65
$GPRMC,133947.00,A,2253.99209,S,04701.12987,W,24.273,74.57,221121,,,A*62
$GPVTG,74.57,T,,M,24.273,N,44.954,K,A*04
$GPGGA,133947.00,2253.99209,S,04701.12987,W,1,05,1.49,680.4,M,-5.6,M,,*4F
$GPGSA,A,3,20,24,12,29,02,,,,,,,,2.92,1.49,2.51*0F
$GPGSV,3,1,10,02,69,121,39,05,,,30,06,,,36,11,56,119,28*7A
$GPGSV,3,2,10,12,52,181,29,15,,,17,19,00,126,,20,26,061,39*4A
$GPGSV,3,3,10,24,62,331,40,29,33,269,33*79
$GPGLL,2253.99209,S,04701.12987,W,133947.00,A,A*67
$GPRMC,133948.00,A,2253.99034,S,04701.12307,W,23.160,75.07,221121,,,A*61
$GPVTG,75.07,T,,M,23.160,N,42.893,K,A*0A
$GPGGA,133948.00,2253.99034,S,04701.12307,W,1,05,1.49,681.3,M,-5.6,M,,*48
$GPGSA,A,3,20,24,12,29,02,,,,,,,,2.92,1.49,2.51*0F
$GPGSV,3,1,09,02,69,121,39,05,,,34,06,,,38,11,56,119,27*77
$GPGSV,3,2,09,12,52,181,29,19,00,126,,20,26,061,38,24,62,331,40*76
$GPGSV,3,3,09,29,33,269,32*47
$GPGLL,2253.99034,S,04701.12307,W,133948.00,A,A*66
$GPRMC,133949.00,A,2253.98873,S,04701.11640,W,22.835,75.75,221121,,,A*62
$GPVTG,75.75,T,,M,22.835,N,42.290,K,A*0E
$GPGGA,133949.00,2253.98873,S,04701.11640,W,1,05,1.49,682.1,M,-5.6,M,,*47
$GPGSA,A,3,20,24,12,29,02,,,,,,,,2.92,1.49,2.51*0F
$GPGSV,3,1,09,02,69,121,39,05,,,30,06,,,34,11,56,119,27*7F
$GPGSV,3,2,09,12,52,181,30,19,00,126,,20,26,061,36,24,62,331,40*70
$GPGSV,3,3,09,29,33,269,31*44
$GPGLL,2253.98873,S,04701.11640,W,133949.00,A,A*68
$GPRMC,133950.00,A,2253.98713,S,04701.10984,W,22.477,75.57,221121,,,A*6F
$GPVTG,75.57,T,,M,22.477,N,41.628,K,A*00
$GPGGA,133950.00,2253.98713,S,04701.10984,W,1,05,1.49,682.9,M,-5.6,M,,*48
$GPGSA,A,3,20,24,12,29,02,,,,,,,,2.92,1.49,2.51*0F
$GPGSV,3,1,09,02,69,121,39,05,,,29,06,,,30,11,56,119,28*7C
$GPGSV,3,2,09,12,52,181,29,19,00,126,,20,26,061,37,24,62,331,38*76
$GPGSV,3,3,09,29,33,269,31*44
$GPGLL,2253.98713,S,04701.10984,W,133950.00,A,A*6F
$GPRMC,133951.00,A,2253.98552,S,04701.10346,W,21.828,74.91,221121,,,A*63
$GPVTG,74.91,T,,M,21.828,N,40.426,K,A*03
$GPGGA,133951.00,2253.98552,S,04701.10346,W,1,05,1.49,683.7,M,-5.6,M,,*45
$GPGSA,A,3,20,24,12,29,02,,,,,,,,2.92,1.49,2.51*0F
$GPGSV,3,1,09,02,69,121,39,05,,,29,06,,,33,11,56,119,29*7E
$GPGSV,3,2,09,12,52,181,27,19,00,126,,20,26,061,37,24,62,331,39*79
$GPGSV,3,3,09,29,33,269,31*44
$GPGLL,2253.98552,S,04701.10346,W,133951.00,A,A*6D
$GPRMC,133952.00,A,2253.98397,S,04701.09743,W,20.391,74.76,221121,,,A*67
$GPVTG,74.76,T,,M,20.391,N,37.764,K,A*07
$GPGGA,133952.00,2253.98397,S,04701.09743,W,1,05,1.49,684.5,M,-5.6,M,,*45
$GPGSA,A,3,20,24,12,29,02,,,,,,,,2.93,1.49,2.52*0D
$GPGSV,3,1,09,02,69,121,39,05,,,20,06,,,30,11,56,119,29*74
$GPGSV,3,2,09,12,52,181,26,19,00,126,,20,26,061,37,24,62,331,39*78
$GPGSV,3,3,09,29,33,269,31*44
$GPGLL,2253.98397,S,04701.09743,W,133952.00,A,A*68
$GPRMC,133953.00,A,2253.98260,S,04701.09191,W,18.560,74.83,221121,,,A*6F
$GPVTG,74.83,T,,M,18.560,N,34.374,K,A*08
$GPGGA,133953.00,2253.98260,S,04701.09191,W,1,05,1.49,685.2,M,-5.6,M,,*42
$GPGSA,A,3,20,24,12,29,02,,,,,,,,2.93,1.49,2.52*0D
$GPGSV,3,1,09,02,69,121,39,05,,,30,06,,,36,11,56,119,28*72
$GPGSV,3,2,09,12,52,181,26,19,00,126,,20,26,061,38,24,62,331,39*77
$GPGSV,3,3,09,29,33,269,31*44
$GPGLL,2253.98260,S,04701.09191,W,133953.00,A,A*69
$GPRMC,133954.00,A,2253.98146,S,04701.08690,W,16.719,76.72,221121,,,A*66
$GPVTG,76.72,T,,M,16.719,N,30.963,K,A*0E
$GPGGA,133954.00,2253.98146,S,04701.08690,W,1,05,1.49,685.8,M,-5.6,M,,*4F
$GPGSA,A,3,20,24,12,29,02,,,,,,,,2.93,1.49,2.52*0D
$GPGSV,3,1,09,02,69,121,40,05,,,24,06,,,37,11,56,119,28*78
$GPGSV,3,2,09,12,52,181,27,19,00,126,,20,26,061,38,24,62,331,39*76
$GPGSV,3,3,09,29,33,269,28*4C
$GPGLL,2253.98146,S,04701.08690,W,133954.00,A,A*6E
$GPRMC,133955.00,A,2253.98064,S,04701.08243,W,14.771,78.91,221121,,,A*63
$GPVTG,78.91,T,,M,14.771,N,27.357,K,A*0A
$GPGGA,133955.00,2253.98064,S,04701.08243,W,1,05,1.49,686.4,M,-5.6,M,,*4A
$GPGSA,A,3,20,24,12,29,02,,,,,,,,2.93,1.49,2.52*0D
$GPGSV,3,1,09,02,69,121,41,05,,,22,06,,,33,11,56,120,29*70
$GPGSV,3,2,09,12,52,181,33,19,00,126,,20,26,061,39,24,62,331,37*7C
$GPGSV,3,3,09,29,33,269,27*43
$GPGLL,2253.98064,S,04701.08243,W,133955.00,A,A*64
$GPRMC,133956.00,A,2253.97994,S,04701.07849,W,12.905,78.53,221121,,,A*63
$GPVTG,78.53,T,,M,12.905,N,23.899,K,A*02
$GPGGA,133956.00,2253.97994,S,04701.07849,W,1,05,1.49,687.0,M,-5.6,M,,*4A
$GPGSA,A,3,20,24,12,29,02,,,,,,,,2.93,1.49,2.52*0D
$GPGSV,3,1,09,02,69,121,37,05,,,20,06,,,33,11,56,120,31*7A
$GPGSV,3,2,09,12,52,181,33,19,00,126,,20,26,061,39,24,62,331,38*73
$GPGSV,3,3,09,29,33,269,27*43
$GPGLL,2253.97994,S,04701.07849,W,133956.00,A,A*61
$GPRMC,133957.00,A,2253.97933,S,04701.07526,W,10.441,77.66,221121,,,A*6D
$GPVTG,77.66,T,,M,10.441,N,19.337,K,A*02
$GPGGA,133957.00,2253.97933,S,04701.07526,W,1,05,1.49,687.3,M,-5.6,M,,*41
$GPGSA,A,3,20,24,12,29,02,,,,,,,,2.93,1.49,2.52*0D
$GPGSV,3,1,09,02,69,121,38,05,,,21,06,,,29,11,56,120,31*7F
$GPGSV,3,2,09,12,52,181,33,19,00,126,,20,26,061,39,24,62,331,38*73
$GPGSV,3,3,09,29,33,269,27*43
$GPGLL,2253.97933,S,04701.07526,W,133957.00,A,A*69
$GPRMC,133958.00,A,2253.97893,S,04701.07285,W,7.733,77.94,221121,,,A*5A
$GPVTG,77.94,T,,M,7.733,N,14.321,K,A*35
$GPGGA,133958.00,2253.97893,S,04701.07285,W,1,05,1.49,687.4,M,-5.6,M,,*4C
$GPGSA,A,3,20,24,12,29,02,,,,,,,,2.93,1.49,2.52*0D
$GPGSV,3,1,09,02,69,121,37,05,,,29,06,,,21,11,56,120,30*71
$GPGSV,3,2,09,12,52,181,30,19,00,126,,20,26,061,37,24,62,331,38*7E
$GPGSV,3,3,09,29,33,269,28*4C
$GPGLL,2253.97893,S,04701.07285,W,133958.00,A,A*63
$GPRMC,133959.00,A,2253.97867,S,04701.07110,W,5.318,79.32,221121,,,A*52
$GPVTG,79.32,T,,M,5.318,N,9.849,K,A*01
$GPGGA,133959.00,2253.97867,S,04701.07110,W,1,05,1.49,687.7,M,-5.6,M,,*4A
$GPGSA,A,3,20,24,12,29,02,,,,,,,,2.93,1.49,2.52*0D
$GPGSV,3,1,09,02,69,121,36,05,,,33,06,,,20,11,56,120,34*7E
$GPGSV,3,2,09,12,52,181,32,19,00,126,,20,26,061,37,24,62,331,39*7D
$GPGSV,3,3,09,29,33,269,28*4C
$GPGLL,2253.97867,S,04701.07110,W,133959.00,A,A*66
$GPRMC,134000.00,A,2253.97866,S,04701.07010,W,2.735,80.48,221121,,,A*57
$GPVTG,80.48,T,,M,2.735,N,5.066,K,A*0F
$GPGGA,134000.00,2253.97866,S,04701.07010,W,1,05,1.49,687.9,M,-5.6,M,,*46
$GPGSA,A,3,20,24,12,29,02,,,,,,,,2.93,1.49,2.52*0D
$GPGSV,3,1,09,02,69,121,32,05,,,33,06,,,21,11,56,120,33*7C
$GPGSV,3,2,09,12,52,181,31,19,00,126,,20,26,061,39,24,62,331,38*71
$GPGSV,3,3,09,29,33,269,27*43
$GPGLL,2253.97866,S,04701.07010,W,134000.00,A,A*64
$GPRMC,134001.00,A,2253.97859,S,04701.06969,W,0.988,,221121,,,A*7C
$GPVTG,,T,,M,0.988,N,1.830,K,A*20
$GPGGA,134001.00,2253.97859,S,04701.06969,W,1,05,1.49,688.2,M,-5.6,M,,*49
$GPGSA,A,3,20,24,12,29,02,,,,,,,,2.93,1.49,2.52*0D
$GPGSV,3,1,09,02,69,121,33,05,,,33,06,,,20,11,56,120,33*7C
$GPGSV,3,2,09,12,52,181,26,19,00,126,,20,26,061,38,24,62,331,38*76
$GPGSV,3,3,09,29,33,269,28*4C
$GPGLL,2253.97859,S,04701.06969,W,134001.00,A,A*6F
$GPRMC,134002.00,A,2253.97857,S,04701.06941,W,1.120,,221121,,,A*70
$GPVTG,,T,,M,1.120,N,2.075,K,A*21
$GPGGA,134002.00,2253.97857,S,04701.06941,W,1,05,1.49,688.3,M,-5.6,M,,*4F
$GPGSA,A,3,20,24,12,29,02,,,,,,,,2.93,1.49,2.52*0D
$GPGSV,3,1,09,02,69,121,33,05,,,32,06,,,20,11,56,120,33*7D
$GPGSV,3,2,09,12,52,181,26,19,00,126,,20,26,061,38,24,62,331,36*78
$GPGSV,3,3,09,29,33,269,28*4C
$GPGLL,2253.97857,S,04701.06941,W,134002.00,A,A*68
$GPRMC,134003.00,A,2253.97849,S,04701.06853,W,3.715,82.73,221121,,,A*5E
$GPVTG,82.73,T,,M,3.715,N,6.880,K,A*05
$GPGGA,134003.00,2253.97849,S,04701.06853,W,1,05,1.49,688.3,M,-5.6,M,,*43
$GPGSA,A,3,20,24,12,29,02,,,,,,,,2.93,1.49,2.52*0D
$GPGSV,3,1,09,02,69,121,29,05,,,33,06,,,21,11,56,120,33*76
$GPGSV,3,2,09,12,52,181,31,19,00,126,,20,26,061,38,24,62,331,38*70
$GPGSV,3,3,09,29,33,269,28*4C
$GPGLL,2253.97849,S,04701.06853,W,134003.00,A,A*64
$GPRMC,134004.00,A,2253.97884,S,04701.06735,W,5.475,91.91,221121,,,A*5A
$GPVTG,91.91,T,,M,5.475,N,10.139,K,A*34
$GPGGA,134004.00,2253.97884,S,04701.06735,W,1,05,1.49,686.3,M,-5.6,M,,*44
$GPGSA,A,3,20,24,12,29,02,,,,,,,,2.93,1.49,2.52*0D
$GPGSV,3,1,09,02,69,121,36,05,,,33,06,,,25,11,56,120,36*79
$GPGSV,3,2,09,12,52,181,24,19,00,126,,20,26,061,38,24,62,331,38*74
$GPGSV,3,3,09,29,33,269,26*42
$GPGLL,2253.97884,S,04701.06735,W,134004.00,A,A*6D
$GPRMC,134005.00,A,2253.97932,S,04701.06563,W,7.060,96.54,221121,,,A*5A
$GPVTG,96.54,T,,M,7.060,N,13.076,K,A*31
$GPGGA,134005.00,2253.97932,S,04701.06563,W,1,05,1.49,684.3,M,-5.6,M,,*4A
$GPGSA,A,3,20,24,12,29,02,,,,,,,,2.93,1.49,2.52*0D
$GPGSV,3,1,09,02,69,121,36,05,,,35,06,,,34,11,56,120,35*7C
$GPGSV,3,2,09,12,52,181,25,19,00,126,,20,26,061,38,24,62,331,34*79
$GPGSV,3,3,09,29,33,269,24*40
$GPGLL,2253.97932,S,04701.06563,W,134005.00,A,A*61
$GPRMC,134006.00,A,2253.97936,S,04701.06295,W,8.727,94.21,221121,,,A*58
$GPVTG,94.21,T,,M,8.727,N,16.163,K,A*3A
$GPGGA,134006.00,2253.97936,S,04701.06295,W,1,05,1.49,684.6,M,-5.6,M,,*46
$GPGSA,A,3,20,24,12,29,02,,,,,,,,2.93,1.49,2.52*0D
$GPGSV,3,1,09,02,69,121,36,05,,,35,06,,,24,11,56,120,36*7E
$GPGSV,3,2,09,12,52,181,25,19,00,126,,20,26,061,39,24,62,331,34*78
$GPGSV,3,3,09,29,33,269,31*44
$GPGLL,2253.97936,S,04701.06295,W,134006.00,A,A*68
$GPRMC,134007.00,A,2253.97941,S,04701.05968,W,11.023,94.27,221121,,,A*6E
$GPVTG,94.27,T,,M,11.023,N,20.414,K,A*07
$GPGGA,134007.00,2253.97941,S,04701.05968,W,1,05,1.49,684.9,M,-5.6,M,,*42
$GPGSA,A,3,20,24,12,29,02,,,,,,,,2.93,1.49,2.52*0D
$GPGSV,3,1,09,02,69,121,36,05,,,35,06,,,29,11,56,120,36*73
$GPGSV,3,2,09,12,52,181,27,19,00,126,,20,26,061,38,24,62,331,30*7F
$GPGSV,3,3,09,29,33,269,30*45
$GPGLL,2253.97941,S,04701.05968,W,134007.00,A,A*63
$GPRMC,134008.00,A,2253.97951,S,04701.05614,W,11.738,93.61,221121,,,A*6C
$GPVTG,93.61,T,,M,11.738,N,21.739,K,A*02
$GPGGA,134008.00,2253.97951,S,04701.05614,W,1,05,1.49,684.9,M,-5.6,M,,*48
$GPGSA,A,3,20,24,12,29,02,,,,,,,,2.93,1.49,2.52*0D
$GPGSV,3,1,09,02,69,121,36,05,,,38,06,,,20,11,56,120,35*74
$GPGSV,3,2,09,12,52,181,28,19,00,126,,20,26,061,36,24,61,332,30*7E
$GPGSV,3,3,09,29,33,269,30*45
$GPGLL,2253.97951,S,04701.05614,W,134008.00,A,A*69
$GPRMC,134009.00,A,2253.97963,S,04701.05255,W,11.635,94.41,221121,,,A*64
$GPVTG,94.41,T,,M,11.635,N,21.548,K,A*0F
$GPGGA,134009.00,2253.97963,S,04701.05255,W,1,05,1.49,685.3,M,-5.6,M,,*42
$GPGSA,A,3,20,24,12,29,02,,,,,,,,2.93,1.49,2.52*0D
$GPGSV,3,1,09,02,69,121,36,05,,,36,06,,,21,11,56,120,36*78
$GPGSV,3,2,09,12,52,181,27,19,00,126,,20,26,061,38,24,61,332,31*7E
$GPGSV,3,3,09,29,33,269,30*45
$GPGLL,2253.97963,S,04701.05255,W,134009.00,A,A*68
$GPRMC,134010.00,A,2253.97974,S,04701.04900,W,11.476,95.24,221121,,,A*67
$GPVTG,95.24,T,,M,11.476,N,21.254,K,A*02
$GPGGA,134010.00,2253.97974,S,04701.04900,W,1,05,1.49,685.9,M,-5.6,M,,*4C
$GPGSA,A,3,20,24,12,29,02,,,,,,,,2.93,1.49,2.53*0C
$GPGSV,3,1,09,02,69,121,36,05,,,38,06,,,24,11,56,120,36*73
$GPGSV,3,2,09,12,52,181,28,19,00,126,,20,26,061,36,24,61,332,30*7E
$GPGSV,3,3,09,29,33,269,30*45
$GPGLL,2253.97974,S,04701.04900,W,134010.00,A,A*6C
$GPRMC,134011.00,A,2253.97995,S,04701.04586,W,9.905,96.90,221121,,,A*57
$GPVTG,96.90,T,,M,9.905,N,18.344,K,A*34
$GPGGA,134011.00,2253.97995,S,04701.04586,W,1,05,1.49,686.5,M,-5.6,M,,*4F
$GPGSA,A,3,20,24,12,29,02,,,,,,,,2.93,1.49,2.53*0C
$GPGSV,3,1,09,02,69,121,36,05,,,37,06,,,26,11,56,120,35*7D
$GPGSV,3,2,09,12,52,181,27,19,00,126,,20,26,061,36,24,61,332,30*71
$GPGSV,3,3,09,29,33,269,30*45
$GPGLL,2253.97995,S,04701.04586,W,134011.00,A,A*60
$GPRMC,134012.00,A,2253.98020,S,04701.04332,W,7.917,97.95,221121,,,A*5C
$GPVTG,97.95,T,,M,7.917,N,14.663,K,A*31
$GPGGA,134012.00,2253.98020,S,04701.04332,W,1,05,1.49,686.8,M,-5.6,M,,*40
$GPGSA,A,3,20,24,12,29,02,,,,,,,,2.93,1.49,2.53*0C
$GPGSV,3,1,09,02,69,121,36,05,,,36,06,,,31,11,56,120,33*7C
$GPGSV,3,2,09,12,52,181,26,19,00,126,,20,26,061,29,24,61,332,30*7E
$GPGSV,3,3,09,29,33,269,31*44
$GPGLL,2253.98020,S,04701.04332,W,134012.00,A,A*62
$GPRMC,134013.00,A,2253.98048,S,04701.04102,W,7.447,98.48,221121,,,A*55
$GPVTG,98.48,T,,M,7.447,N,13.791,K,A*3D
$GPGGA,134013.00,2253.98048,S,04701.04102,W,1,05,1.49,687.2,M,-5.6,M,,*45
$GPGSA,A,3,20,24,12,29,02,,,,,,,,2.93,1.49,2.53*0C
$GPGSV,3,1,09,02,69,121,35,05,,,38,06,,,31,11,56,120,36*74
$GPGSV,3,2,09,12,52,181,25,19,00,126,,20,26,061,26,24,61,332,31*73
$GPGSV,3,3,09,29,33,268,32*46
$GPGLL,2253.98048,S,04701.04102,W,134013.00,A,A*6C
$GPRMC,134014.00,A,2253.98087,S,04701.03844,W,8.784,100.38,221121,,,A*69
$GPVTG,100.38,T,,M,8.784,N,16.268,K,A*0F
$GPGGA,134014.00,2253.98087,S,04701.03844,W,1,05,1.49,687.4,M,-5.6,M,,*4B
$GPGSA,A,3,20,24,12,29,02,,,,,,,,2.93,1.49,2.53*0C
$GPGSV,3,1,09,02,69,121,39,05,,,29,06,,,30,11,56,120,35*7A
$GPGSV,3,2,09,12,52,181,31,19,00,126,,20,26,061,23,24,61,332,31*73
$GPGSV,3,3,09,29,33,268,31*45
$GPGLL,2253.98087,S,04701.03844,W,134014.00,A,A*64
$GPRMC,134015.00,A,2253.98182,S,04701.03574,W,9.583,107.24,221121,,,A*6C
$GPVTG,107.24,T,,M,9.583,N,17.748,K,A*07
$GPGGA,134015.00,2253.98182,S,04701.03574,W,1,05,1.49,687.6,M,-5.6,M,,*42
$GPGSA,A,3,20,24,12,29,02,,,,,,,,2.94,1.49,2.53*0B
$GPGSV,3,1,09,02,69,121,37,05,,,18,06,,,35,11,56,120,37*71
$GPGSV,3,2,09,12,52,181,31,19,00,126,,20,26,061,24,24,61,332,31*74
$GPGSV,3,3,09,29,33,268,24*41
$GPGLL,2253.98182,S,04701.03574,W,134015.00,A,A*6F
$GPRMC,134016.00,A,2253.98334,S,04701.03310,W,10.835,117.49,221121,,,A*56
$GPVTG,117.49,T,,M,10.835,N,20.067,K,A*3B
$GPGGA,134016.00,2253.98334,S,04701.03310,W,1,05,1.49,688.0,M,-5.6,M,,*43
$GPGSA,A,3,20,24,12,29,02,,,,,,,,2.94,1.49,2.53*0B
$GPGSV,3,1,09,02,69,121,37,05,,,21,06,,,35,11,56,120,37*7B
$GPGSV,3,2,09,12,52,181,35,19,00,126,,20,26,061,29,24,61,332,32*7E
$GPGSV,3,3,09,29,33,268,30*44
$GPGLL,2253.98334,S,04701.03310,W,134016.00,A,A*67
$GPRMC,134017.00,A,2253.98509,S,04701.02996,W,12.147,120.59,221121,,,A*51
$GPVTG,120.59,T,,M,12.147,N,22.496,K,A*38
$GPGGA,134017.00,2253.98509,S,04701.02996,W,1,05,1.49,688.1,M,-5.6,M,,*4E
$GPGSA,A,3,20,24,12,29,02,,,,,,,,2.94,1.49,2.53*0B
$GPGSV,3,1,09,02,69,121,37,05,,,21,06,,,35,11,56,120,37*7B
$GPGSV,3,2,09,12,52,181,35,19,00,126,,20,26,061,37,24,61,332,27*75
$GPGSV,3,3,09,29,33,268,29*4C
$GPGLL,2253.98509,S,04701.02996,W,134017.00,A,A*6B
$GPRMC,134018.00,A,2253.98718,S,04701.02659,W,13.570,123.92,221121,,,A*55
$GPVTG,123.92,T,,M,13.570,N,25.131,K,A*32
$GPGGA,134018.00,2253.98718,S,04701.02659,W,1,05,1.49,688.6,M,-5.6,M,,*48
$GPGSA,A,3,20,24,12,29,02,,,,,,,,2.94,1.49,2.53*0B
$GPGSV,3,1,09,02,69,121,38,05,,,20,06,,,33,11,56,120,36*72
$GPGSV,3,2,09,12,52,181,36,19,00,126,,20,26,061,37,24,61,332,32*72
$GPGSV,3,3,09,29,33,268,29*4C
$GPGLL,2253.98718,S,04701.02659,W,134018.00,A,A*6A
$GPRMC,134019.00,A,2253.98953,S,04701.02303,W,15.147,127.44,221121,,,A*56
$GPVTG,127.44,T,,M,15.147,N,28.052,K,A*32
$GPGGA,134019.00,2253.98953,S,04701.02303,W,1,05,1.49,689.7,M,-5.6,M,,*42
$GPGSA,A,3,20,24,12,29,02,,,,,,,,2.94,1.49,2.53*0B
$GPGSV,3,1,09,02,69,121,36,05,,,22,06,,,34,11,56,120,36*79
$GPGSV,3,2,09,12,52,181,36,19,00,126,,20,26,061,38,24,61,332,31*7E
$GPGSV,3,3,09,29,33,268,29*4C
$GPGLL,2253.98953,S,04701.02303,W,134019.00,A,A*60
$GPRMC,134020.00,A,2253.99216,S,04701.01936,W,15.461,127.21,221121,,,A*5A
$GPVTG,127.21,T,,M,15.461,N,28.633,K,A*31
$GPGGA,134020.00,2253.99216,S,04701.01936,W,1,05,1.49,690.1,M,-5.6,M,,*42
$GPGSA,A,3,20,24,12,29,02,,,,,,,,2.94,1.49,2.53*0B
$GPGSV,3,1,09,02,69,121,35,05,,,30,06,,,34,11,56,120,37*78
$GPGSV,3,2,09,12,52,181,35,19,00,126,,20,26,061,38,24,61,332,30*7C
$GPGSV,3,3,09,29,33,268,29*4C
$GPGLL,2253.99216,S,04701.01936,W,134020.00,A,A*6E
$GPRMC,134021.00,A,2253.99466,S,04701.01579,W,14.852,127.21,221121,,,A*50
$GPVTG,127.21,T,,M,14.852,N,27.507,K,A*37
$GPGGA,134021.00,2253.99466,S,04701.01579,W,1,05,1.49,690.7,M,-5.6,M,,*43
$GPGSA,A,3,20,24,12,29,02,,,,,,,,2.94,1.49,2.53*0B
$GPGSV,3,1,09,02,69,121,35,05,,,28,06,,,33,11,56,120,37*76
$GPGSV,3,2,09,12,52,181,35,19,00,126,,20,26,061,38,24,61,332,30*7C
$GPGSV,3,3,09,29,33,268,29*4C
$GPGLL,2253.99466,S,04701.01579,W,134021.00,A,A*69
$GPRMC,134022.00,A,2253.99740,S,04701.01215,W,15.255,127.12,221121,,,A*55
$GPVTG,127.12,T,,M,15.255,N,28.253,K,A*32
$GPGGA,134022.00,2253.99740,S,04701.01215,W,1,05,1.49,690.6,M,-5.6,M,,*4B
$GPGSA,A,3,20,24,12,29,02,,,,,,,,2.94,1.49,2.53*0B
$GPGSV,3,1,09,02,69,121,36,05,,,28,06,,,32,11,56,120,37*74
$GPGSV,3,2,09,12,52,181,35,19,00,126,,20,26,061,31,24,61,332,29*7D
$GPGSV,3,3,09,29,33,268,29*4C
$GPGLL,2253.99740,S,04701.01215,W,134022.00,A,A*60
$GPRMC,134023.00,A,2254.00000,S,04701.00846,W,15.147,127.48,221121,,,A*52
$GPVTG,127.48,T,,M,15.147,N,28.052,K,A*3E
$GPGGA,134023.00,2254.00000,S,04701.00846,W,1,05,1.49,690.5,M,-5.6,M,,*40
$GPGSA,A,3,20,24,12,29,02,,,,,,,,2.94,1.49,2.53*0B
$GPGSV,3,1,09,02,69,121,38,05,,,27,06,,,32,11,56,120,35*77
$GPGSV,3,2,09,12,52,181,31,19,00,126,,20,26,061,38,24,61,332,30*78
$GPGSV,3,3,09,29,33,268,29*4C
$GPGLL,2254.00000,S,04701.00846,W,134023.00,A,A*68
$GPRMC,134024.00,A,2254.00274,S,04701.00473,W,15.858,128.24,221121,,,A*5C
$GPVTG,128.24,T,,M,15.858,N,29.369,K,A*36
$GPGGA,134024.00,2254.00274,S,04701.00473,W,1,05,1.49,690.5,M,-5.6,M,,*4C
$GPGSA,A,3,20,24,12,29,02,,,,,,,,2.94,1.49,2.53*0B
$GPGSV,3,1,09,02,69,121,35,05,,,28,06,,,32,11,56,120,35*75
$GPGSV,3,2,09,12,52,181,33,19,00,126,,20,26,061,36,24,61,332,31*75
$GPGSV,3,3,09,29,33,268,28*4D
$GPGLL,2254.00274,S,04701.00473,W,134024.00,A,A*64
$GPRMC,134025.00,A,2254.00540,S,04701.00089,W,15.918,126.93,221121,,,A*5B
$GPVTG,126.93,T,,M,15.918,N,29.479,K,A*37
$GPGGA,134025.00,2254.00540,S,04701.00089,W,1,05,1.49,690.8,M,-5.6,M,,*41
$GPGSA,A,3,20,24,12,29,02,,,,,,,,2.94,1.49,2.53*0B
$GPGSV,3,1,09,02,69,121,35,05,,,29,06,,,31,11,56,120,34*76
$GPGSV,3,2,09,12,52,181,33,19,00,126,,20,26,061,28,24,61,332,32*79
$GPGSV,3,3,09,29,33,268,28*4D
$GPGLL,2254.00540,S,04701.00089,W,134025.00,A,A*64
$GPRMC,134026.00,A,2254.00771,S,04700.99690,W,15.816,122.78,221121,,,A*59
$GPVTG,122.78,T,,M,15.816,N,29.292,K,A*3A
$GPGGA,134026.00,2254.00771,S,04700.99690,W,1,05,1.49,691.8,M,-5.6,M,,*4C
$GPGSA,A,3,20,24,12,29,02,,,,,,,,2.94,1.49,2.53*0B
$GPGSV,3,1,09,02,69,121,32,05,,,24,06,,,31,11,56,120,31*79
$GPGSV,3,2,09,12,52,181,30,19,00,126,,20,26,061,33,24,61,332,29*7A
$GPGSV,3,3,09,29,33,268,28*4D
$GPGLL,2254.00771,S,04700.99690,W,134026.00,A,A*68
$GPRMC,134027.00,A,2254.01001,S,04700.99475,W,10.166,132.23,221121,,,A*54
$GPVTG,132.23,T,,M,10.166,N,18.827,K,A*38
$GPGGA,134027.00,2254.01001,S,04700.99475,W,1,05,1.55,691.4,M,-5.6,M,,*44
$GPGSA,A,3,20,24,12,29,02,,,,,,,,3.43,1.55,3.06*0C
$GPGSV,3,1,09,02,69,121,32,05,,,30,06,,,32,11,56,120,31*7F
$GPGSV,3,2,09,12,52,181,29,19,00,126,,20,26,061,29,24,61,332,26*76
$GPGSV,3,3,09,29,33,268,26*43
$GPGLL,2254.01001,S,04700.99475,W,134027.00,A,A*61
$GPRMC,134028.00,A,2254.01238,S,04700.99155,W,13.935,128.48,221121,,,A*5F
$GPVTG,128.48,T,,M,13.935,N,25.807,K,A*3F
$GPGGA,134028.00,2254.01238,S,04700.99155,W,1,05,1.55,691.6,M,-5.6,M,,*46
$GPGSA,A,3,20,24,12,29,02,,,,,,,,3.43,1.55,3.06*0C
$GPGSV,3,1,09,02,69,121,37,05,,,25,06,,,32,11,56,120,35*7A
$GPGSV,3,2,09,12,52,181,33,19,00,126,,20,26,061,36,24,61,332,27*72
$GPGSV,3,3,09,29,33,268,25*40
$GPGLL,2254.01238,S,04700.99155,W,134028.00,A,A*61
$GPRMC,134029.00,A,2254.01528,S,04700.98734,W,17.190,126.56,221121,,,A*5A
$GPVTG,126.56,T,,M,17.190,N,31.835,K,A*39
$GPGGA,134029.00,2254.01528,S,04700.98734,W,1,05,1.49,691.8,M,-5.6,M,,*42
$GPGSA,A,3,20,24,12,29,02,,,,,,,,2.94,1.49,2.54*0C
$GPGSV,3,1,09,02,69,121,37,05,,,31,06,,,32,11,56,120,33*79
$GPGSV,3,2,09,12,52,181,34,19,00,126,,20,26,061,37,24,61,332,32*70
$GPGSV,3,3,09,29,33,268,24*41
$GPGLL,2254.01528,S,04700.98734,W,134029.00,A,A*66
$GPRMC,134030.00,A,2254.01809,S,04700.98256,W,18.647,118.09,221121,,,A*58
$GPVTG,118.09,T,,M,18.647,N,34.534,K,A*35
$GPGGA,134030.00,2254.01809,S,04700.98256,W,1,05,1.49,688.9,M,-5.6,M,,*4C
$GPGSA,A,3,20,24,12,29,02,,,,,,,,2.94,1.49,2.54*0C
$GPGSV,3,1,09,02,69,121,37,05,,,31,06,,,34,11,56,120,36*7A
$GPGSV,3,2,09,12,52,181,34,19,00,126,,20,26,061,30,24,61,332,26*72
$GPGSV,3,3,09,29,33,268,26*43
$GPGLL,2254.01809,S,04700.98256,W,134030.00,A,A*61
$GPRMC,134031.00,A,2254.02087,S,04700.97804,W,17.995,125.22,221121,,,A*5E
$GPVTG,125.22,T,,M,17.995,N,33.328,K,A*31
$GPGGA,134031.00,2254.02087,S,04700.97804,W,1,05,1.49,687.9,M,-5.6,M,,*4D
$GPGSA,A,3,20,24,12,29,02,,,,,,,,2.94,1.49,2.54*0C
$GPGSV,3,1,09,02,69,121,38,05,,,26,06,,,31,11,56,120,32*72
$GPGSV,3,2,09,12,52,181,36,19,00,126,,20,26,061,29,24,61,332,27*79
$GPGSV,3,3,09,29,33,268,26*43
$GPGLL,2254.02087,S,04700.97804,W,134031.00,A,A*6F
$GPRMC,134032.00,A,2254.02314,S,04700.97411,W,15.521,124.04,221121,,,A*58
$GPVTG,124.04,T,,M,15.521,N,28.745,K,A*30
$GPGGA,134032.00,2254.02314,S,04700.97411,W,1,05,1.49,688.0,M,-5.6,M,,*49
$GPGSA,A,3,20,24,12,29,02,,,,,,,,2.94,1.49,2.54*0C
$GPGSV,3,1,09,02,69,121,37,05,,,26,06,,,24,11,56,120,35*7E
$GPGSV,3,2,09,12,52,181,38,19,00,126,,20,26,061,33,24,61,332,28*73
$GPGSV,3,3,09,29,33,268,26*43
$GPGLL,2254.02314,S,04700.97411,W,134032.00,A,A*6D
$GPRMC,134033.00,A,2254.02572,S,04700.97015,W,15.704,126.88,221121,,,A*5C
$GPVTG,126.88,T,,M,15.704,N,29.085,K,A*39
$GPGGA,134033.00,2254.02572,S,04700.97015,W,1,05,1.49,689.1,M,-5.6,M,,*4E
$GPGSA,A,3,20,24,12,29,02,,,,,,,,2.94,1.49,2.54*0C
$GPGSV,3,1,09,02,69,121,33,05,,,26,06,,,34,11,56,120,31*7F
$GPGSV,3,2,09,12,52,181,35,19,00,126,,20,26,061,33,24,61,332,27*71
$GPGSV,3,3,09,29,33,268,28*4D
$GPGLL,2254.02572,S,04700.97015,W,134033.00,A,A*6A
$GPRMC,134034.00,A,2254.02807,S,04700.96636,W,14.702,126.06,221121,,,A*53
$GPVTG,126.06,T,,M,14.702,N,27.228,K,A*33
$GPGGA,134034.00,2254.02807,S,04700.96636,W,1,05,1.49,691.4,M,-5.6,M,,*4C
$GPGSA,A,3,20,24,12,29,02,,,,,,,,2.94,1.49,2.54*0C
$GPGSV,3,1,09,02,69,121,33,05,,,27,06,,,34,11,56,120,27*79
$GPGSV,3,2,09,12,52,181,37,19,00,126,,20,26,061,34,24,61,332,27*74
$GPGSV,3,3,09,29,33,268,28*4D
$GPGLL,2254.02807,S,04700.96636,W,134034.00,A,A*64
$GPRMC,134035.00,A,2254.03050,S,04700.96231,W,15.438,124.02,221121,,,A*57
$GPVTG,124.02,T,,M,15.438,N,28.592,K,A*37
$GPGGA,134035.00,2254.03050,S,04700.96231,W,1,05,1.49,692.2,M,-5.6,M,,*40
$GPGSA,A,3,20,24,12,29,02,,,,,,,,2.94,1.49,2.54*0C
$GPGSV,3,1,09,02,69,121,36,05,,,28,06,,,30,11,56,120,35*74
$GPGSV,3,2,09,12,52,181,35,19,00,126,,20,26,061,25,24,61,332,28*79
$GPGSV,3,3,09,29,33,268,29*4C
$GPGLL,2254.03050,S,04700.96231,W,134035.00,A,A*6D
$GPRMC,134036.00,A,2254.03273,S,04700.95818,W,15.271,121.62,221121,,,A*5D
$GPVTG,121.62,T,,M,15.271,N,28.281,K,A*3A
$GPGGA,134036.00,2254.03273,S,04700.95818,W,1,05,1.49,693.5,M,-5.6,M,,*44
$GPGSA,A,3,20,24,12,29,02,,,,,,,,2.94,1.49,2.54*0C
$GPGSV,3,1,09,02,69,121,33,05,,,28,06,,,29,11,56,120,30*7C
$GPGSV,3,2,09,12,52,181,35,19,00,126,,20,26,061,30,24,61,332,27*72
$GPGSV,3,3,09,29,33,268,30*44
$GPGLL,2254.03273,S,04700.95818,W,134036.00,A,A*6F
$GPRMC,134037.00,A,2254.03532,S,04700.95414,W,15.554,123.67,221121,,,A*59
$GPVTG,123.67,T,,M,15.554,N,28.806,K,A*38
$GPGGA,134037.00,2254.03532,S,04700.95414,W,1,05,1.49,693.6,M,-5.6,M,,*44
$GPGSA,A,3,20,24,12,29,02,,,,,,,,2.95,1.49,2.54*0D
$GPGSV,3,1,09,02,69,121,28,05,,,28,06,,,33,11,56,120,31*7C
$GPGSV,3,2,09,12,52,181,36,19,00,126,,20,26,061,28,24,61,332,27*78
$GPGSV,3,3,09,29,33,268,29*4C
$GPGLL,2254.03532,S,04700.95414,W,134037.00,A,A*6C
$GPRMC,134038.00,A,2254.03783,S,04700.95053,W,14.672,124.93,221121,,,A*53
$GPVTG,124.93,T,,M,14.672,N,27.173,K,A*36
$GPGGA,134038.00,2254.03783,S,04700.95053,W,1,05,1.49,694.7,M,-5.6,M,,*42
$GPGSA,A,3,20,24,12,29,02,,,,,,,,2.95,1.49,2.54*0D
$GPGSV,3,1,09,02,69,121,29,05,,,32,06,,,33,11,56,120,30*77
$GPGSV,3,2,09,12,52,181,36,19,00,126,,20,26,061,36,24,61,332,27*77
$GPGSV,3,3,09,29,33,268,29*4C
$GPGLL,2254.03783,S,04700.95053,W,134038.00,A,A*6C
$GPRMC,134039.00,A,2254.04022,S,04700.94698,W,14.408,125.32,221121,,,A*5C
$GPVTG,125.32,T,,M,14.408,N,26.683,K,A*3A
$GPGGA,134039.00,2254.04022,S,04700.94698,W,1,05,1.49,696.7,M,-5.6,M,,*4A
$GPGSA,A,3,20,24,12,29,02,,,,,,,,2.95,1.49,2.54*0D
$GPGSV,3,1,09,02,69,121,36,05,,,32,06,,,33,11,56,120,34*7D
$GPGSV,3,2,09,12,52,181,36,19,00,126,,20,26,061,34,24,61,332,26*74
$GPGSV,3,3,09,29,33,268,28*4D
$GPGLL,2254.04022,S,04700.94698,W,134039.00,A,A*66
$GPRMC,134040.00,A,2254.04167,S,04700.94389,W,11.522,121.89,221121,,,A*5F
$GPVTG,121.89,T,,M,11.522,N,21.338,K,A*30
$GPGGA,134040.00,2254.04167,S,04700.94389,W,1,05,1.49,700.3,M,-5.6,M,,*4B
$GPGSA,A,3,20,24,12,29,02,,,,,,,,2.95,1.49,2.54*0D
$GPGSV,3,1,09,02,69,121,30,05,,,26,06,,,28,11,56,120,30*70
$GPGSV,3,2,09,12,52,181,32,19,00,126,,20,26,061,34,24,61,332,26*70
$GPGSV,3,3,09,29,33,268,28*4D
$GPGLL,2254.04167,S,04700.94389,W,134040.00,A,A*6D
$GPRMC,134041.00,A,2254.04336,S,04700.94070,W,12.125,120.37,221121,,,A*59
$GPVTG,120.37,T,,M,12.125,N,22.456,K,A*38
$GPGGA,134041.00,2254.04336,S,04700.94070,W,1,05,1.49,701.9,M,-5.6,M,,*42
$GPGSA,A,3,20,24,12,29,02,,,,,,,,2.95,1.49,2.54*0D
$GPGSV,3,1,09,02,69,121,30,05,,,27,06,,,32,11,56,120,30*7A
$GPGSV,3,2,09,12,52,181,35,19,00,126,,20,26,061,30,24,61,332,26*73
$GPGSV,3,3,09,29,33,268,26*43
$GPGLL,2254.04336,S,04700.94070,W,134041.00,A,A*6F
$GPRMC,134042.00,A,2254.04535,S,04700.93766,W,11.682,122.88,221121,,,A*57
$GPVTG,122.88,T,,M,11.682,N,21.635,K,A*33
$GPGGA,134042.00,2254.04535,S,04700.93766,W,1,05,1.49,702.6,M,-5.6,M,,*4F
$GPGSA,A,3,20,24,12,29,02,,,,,,,,2.95,1.49,2.54*0D
$GPGSV,3,1,09,02,69,121,27,05,,,31,06,,,31,11,56,120,27*7E
$GPGSV,3,2,09,12,52,181,35,19,00,126,,20,26,061,29,24,61,332,27*7A
$GPGSV,3,3,09,29,33,268,26*43
$GPGLL,2254.04535,S,04700.93766,W,134042.00,A,A*6E
$GPRMC,134043.00,A,2254.04650,S,04700.93505,W,9.242,117.74,221121,,,A*65
$GPVTG,117.74,T,,M,9.242,N,17.117,K,A*05
$GPGGA,134043.00,2254.04650,S,04700.93505,W,1,05,1.49,703.8,M,-5.6,M,,*46
$GPGSA,A,3,20,24,12,29,02,,,,,,,,2.95,1.49,2.54*0D
$GPGSV,3,1,09,02,69,121,32,05,,,25,06,,,27,11,56,120,27*78
$GPGSV,3,2,09,12,52,181,36,19,00,126,,20,26,061,30,24,61,332,26*70
$GPGSV,3,3,09,29,33,268,25*40
$GPGLL,2254.04650,S,04700.93505,W,134043.00,A,A*68
$GPRMC,134044.00,A,2254.04876,S,04700.93170,W,12.571,121.27,221121,,,A*50
$GPVTG,121.27,T,,M,12.571,N,23.281,K,A*30
$GPGGA,134044.00,2254.04876,S,04700.93170,W,1,05,1.49,702.9,M,-5.6,M,,*4D
$GPGSA,A,3,20,24,12,29,02,,,,,,,,2.95,1.49,2.54*0D
$GPGSV,3,1,09,02,69,121,29,05,,,27,06,,,26,11,56,120,27*71
$GPGSV,3,2,09,12,52,181,29,19,00,126,,20,26,061,25,24,61,332,26*7A
$GPGSV,3,3,09,29,33,268,26*43
$GPGLL,2254.04876,S,04700.93170,W,134044.00,A,A*63
$GPRMC,134045.00,A,2254.05109,S,04700.92865,W,11.922,125.80,221121,,,A*5D
$GPVTG,125.80,T,,M,11.922,N,22.079,K,A*34
$GPGGA,134045.00,2254.05109,S,04700.92865,W,1,05,1.49,704.0,M,-5.6,M,,*4F
$GPGSA,A,3,20,24,12,29,02,,,,,,,,2.95,1.49,2.54*0D
$GPGSV,3,1,09,02,69,121,33,05,,,28,06,,,24,11,56,120,33*72
$GPGSV,3,2,09,12,52,181,36,19,00,126,,20,26,061,26,24,61,332,31*71
$GPGSV,3,3,09,29,33,268,27*42
$GPGLL,2254.05109,S,04700.92865,W,134045.00,A,A*6E
$GPRMC,134046.00,A,2254.05245,S,04700.92664,W,7.679,124.66,221121,,,A*65
$GPVTG,124.66,T,,M,7.679,N,14.222,K,A*02
$GPGGA,134046.00,2254.05245,S,04700.92664,W,1,05,1.49,705.9,M,-5.6,M,,*40
$GPGSA,A,3,20,24,12,29,02,,,,,,,,2.95,1.49,2.54*0D
$GPGSV,3,1,09,02,69,121,35,05,,,28,06,,,31,11,56,120,37*74
$GPGSV,3,2,09,12,52,181,33,19,00,126,,20,26,061,35,24,61,332,25*73
$GPGSV,3,3,09,29,33,268,27*42
$GPGLL,2254.05245,S,04700.92664,W,134046.00,A,A*69
$GPRMC,134047.00,A,2254.05418,S,04700.92471,W,8.263,129.90,221121,,,A*68
$GPVTG,129.90,T,,M,8.263,N,15.303,K,A*05
$GPGGA,134047.00,2254.05418,S,04700.92471,W,1,05,1.49,707.4,M,-5.6,M,,*46
$GPGSA,A,3,20,24,12,29,02,,,,,,,,2.95,1.49,2.55*0C
$GPGSV,3,1,09,02,69,121,35,05,,,27,06,,,31,11,56,120,35*79
$GPGSV,3,2,09,12,52,181,32,19,00,126,,20,26,061,24,24,61,332,25*72
$GPGSV,3,3,09,29,33,268,27*42
$GPGLL,2254.05418,S,04700.92471,W,134047.00,A,A*60
$GPRMC,134048.00,A,2254.05578,S,04700.92277,W,7.640,129.05,221121,,,A*66
$GPVTG,129.05,T,,M,7.640,N,14.149,K,A*0E
$GPGGA,134048.00,2254.05578,S,04700.92277,W,1,05,1.49,707.7,M,-5.6,M,,*4D
$GPGSA,A,3,20,24,12,29,02,,,,,,,,2.95,1.49,2.55*0C
$GPGSV,3,1,09,02,69,121,32,05,,,25,06,,,32,11,56,120,28*73
$GPGSV,3,2,09,12,52,181,28,19,00,126,,20,26,061,30,24,61,332,25*7C
$GPGSV,3,3,09,29,33,268,27*42
$GPGLL,2254.05578,S,04700.92277,W,134048.00,A,A*68
