$GPVTG,,T,,M,0.043,N,0.079,K,A*2A
$GPGGA,134811.00,2254.23350,S,04700.64918,W,1,07,1.08,721.2,M,-5.6,M,,*4C
$GPGSA,A,3,20,24,06,12,29,05,02,,,,,,2.09,1.08,1.79*02
$GPGSV,3,1,11,02,65,128,35,05,19,033,26,06,18,142,35,11,54,125,32*76
$GPGSV,3,2,11,12,54,176,31,15,03,353,30,20,28,064,36,24,58,336,36*7E
$GPGSV,3,3,11,25,32,214,25,29,34,264,30,32,00,249,*4E
$GPGLL,2254.23350,S,04700.64918,W,134811.00,A,A*6F
$GPRMC,134812.00,A,2254.23351,S,04700.64923,W,0.028,,221121,,,A*75
$GPVTG,,T,,M,0.028,N,0.052,K,A*2E
$GPGGA,134812.00,2254.23351,S,04700.64923,W,1,07,1.08,721.1,M,-5.6,M,,*45
$GPGSA,A,3,20,24,06,12,29,05,02,,,,,,2.09,1.08,1.79*02
$GPGSV,3,1,11,02,65,128,35,05,19,033,25,06,18,142,35,11,54,125,32*75
$GPGSV,3,2,11,12,54,176,30,15,03,353,30,20,28,064,36,24,58,336,36*7F
$GPGSV,3,3,11,25,32,214,25,29,34,264,30,32,00,249,*4E
$GPGLL,2254.23351,S,04700.64923,W,134812.00,A,A*65
$GPRMC,134813.00,A,2254.23350,S,04700.64924,W,0.026,,221121,,,A*7C
$GPVTG,,T,,M,0.026,N,0.048,K,A*2B
$GPGGA,134813.00,2254.23350,S,04700.64924,W,1,07,1.08,721.2,M,-5.6,M,,*41
$GPGSA,A,3,20,24,06,12,29,05,02,,,,,,2.09,1.08,1.79*02
$GPGSV,3,1,11,02,65,128,34,05,19,033,25,06,18,142,35,11,54,125,32*74
$GPGSV,3,2,11,12,54,176,30,15,03,353,30,20,28,064,36,24,58,336,37*7E
$GPGSV,3,3,11,25,32,214,25,29,34,264,31,32,00,249,*4F
$GPGLL,2254.23350,S,04700.64924,W,134813.00,A,A*62
$GPRMC,134814.00,A,2254.23351,S,04700.64930,W,0.062,,221121,,,A*7F
$GPVTG,,T,,M,0.062,N,0.115,K,A*22
$GPGGA,134814.00,2254.23351,S,04700.64930,W,1,07,1.08,721.2,M,-5.6,M,,*42
$GPGSA,A,3,20,24,06,12,29,05,02,,,,,,2.09,1.08,1.79*02
$GPGSV,3,1,11,02,65,128,34,05,19,033,25,06,18,142,35,11,54,125,33*75
$GPGSV,3,2,11,12,54,176,30,15,03,353,30,20,28,064,36,24,58,336,37*7E
$GPGSV,3,3,11,25,32,214,25,29,34,264,31,32,00,249,*4F
$GPGLL,2254.23351,S,04700.64930,W,134814.00,A,A*61
$GPRMC,134815.00,A,2254.23355,S,04700.64946,W,0.502,,221121,,,A*78
$GPVTG,,T,,M,0.502,N,0.929,K,A*26
$GPGGA,134815.00,2254.23355,S,04700.64946,W,1,07,1.08,721.1,M,-5.6,M,,*45
$GPGSA,A,3,20,24,06,12,29,05,02,,,,,,2.09,1.08,1.79*02
$GPGSV,3,1,11,02,65,128,30,05,19,033,26,06,18,142,35,11,54,125,32*73
$GPGSV,3,2,11,12,54,176,22,15,03,353,28,20,28,064,32,24,58,336,36*71
$GPGSV,3,3,11,25,32,214,24,29,34,264,35,32,00,249,*4A
$GPGLL,2254.23355,S,04700.64946,W,134815.00,A,A*65
$GPRMC,134816.00,A,2254.23362,S,04700.64967,W,0.842,,221121,,,A*75
$GPVTG,,T,,M,0.842,N,1.560,K,A*2F
$GPGGA,134816.00,2254.23362,S,04700.64967,W,1,07,1.08,721.3,M,-5.6,M,,*43
$GPGSA,A,3,20,24,06,12,29,05,02,,,,,,2.09,1.08,1.79*02
$GPGSV,3,1,11,02,65,128,33,05,19,033,32,06,18,142,34,11,54,125,31*77
$GPGSV,3,2,11,12,54,176,28,15,02,354,28,20,28,064,33,24,58,336,38*72
$GPGSV,3,3,11,25,32,214,23,29,34,264,35,32,00,249,*4D
$GPGLL,2254.23362,S,04700.64967,W,134816.00,A,A*61
$GPRMC,134817.00,A,2254.23368,S,04700.64988,W,0.398,,221121,,,A*73
$GPVTG,,T,,M,0.398,N,0.737,K,A*22
$GPGGA,134817.00,2254.23368,S,04700.64988,W,1,07,1.08,721.2,M,-5.6,M,,*48
$GPGSA,A,3,20,24,06,12,29,05,02,,,,,,2.09,1.08,1.79*02
$GPGSV,3,1,11,02,65,128,33,05,19,033,31,06,18,142,30,11,54,125,34*75
$GPGSV,3,2,11,12,54,176,28,15,02,354,28,20,28,064,36,24,58,336,37*78
$GPGSV,3,3,11,25,32,214,22,29,34,264,33,32,00,249,*4A
$GPGLL,2254.23368,S,04700.64988,W,134817.00,A,A*6B
$GPRMC,134818.00,A,2254.23375,S,04700.65010,W,0.948,189.34,221121,,,A*67
$GPVTG,189.34,T,,M,0.948,N,1.755,K,A*39
$GPGGA,134818.00,2254.23375,S,04700.65010,W,1,07,1.08,721.2,M,-5.6,M,,*42
$GPGSA,A,3,20,24,06,12,29,05,02,,,,,,2.09,1.08,1.79*02
$GPGSV,3,1,11,02,65,128,35,05,19,033,37,06,18,142,30,11,54,125,30*71
$GPGSV,3,2,11,12,54,176,28,15,02,354,27,20,28,064,30,24,58,336,35*73
$GPGSV,3,3,11,25,32,214,29,29,34,264,33,32,00,249,*41
$GPGLL,2254.23375,S,04700.65010,W,134818.00,A,A*61
$GPRMC,134819.00,A,2254.23387,S,04700.65051,W,1.683,226.72,221121,,,A*63
$GPVTG,226.72,T,,M,1.683,N,3.118,K,A*39
$GPGGA,134819.00,2254.23387,S,04700.65051,W,1,07,1.08,721.2,M,-5.6,M,,*4B
$GPGSA,A,3,20,24,06,12,29,05,02,,,,,,2.09,1.08,1.79*02
$GPGSV,3,1,11,02,65,128,33,05,19,033,34,06,18,142,30,11,54,125,37*73
$GPGSV,3,2,11,12,54,176,26,15,02,354,25,20,28,064,31,24,58,336,32*79
$GPGSV,3,3,11,25,32,214,29,29,34,264,28,32,00,249,*4B
$GPGLL,2254.23387,S,04700.65051,W,134819.00,A,A*68
$GPRMC,134820.00,A,2254.23395,S,04700.65085,W,1.220,,221121,,,A*73
$GPVTG,,T,,M,1.220,N,2.260,K,A*24
$GPGGA,134820.00,2254.23395,S,04700.65085,W,1,07,1.08,721.3,M,-5.6,M,,*4A
$GPGSA,A,3,20,24,06,12,29,05,02,,,,,,2.09,1.08,1.79*02
$GPGSV,3,1,11,02,65,128,33,05,19,033,34,06,18,142,25,11,54,125,33*73
$GPGSV,3,2,11,12,54,176,24,15,02,354,23,20,28,064,32,24,58,336,27*7A
$GPGSV,3,3,11,25,32,214,29,29,34,264,28,32,00,249,*4B
$GPGLL,2254.23395,S,04700.65085,W,134820.00,A,A*68
$GPRMC,134821.00,A,2254.23393,S,04700.65111,W,0.819,,221121,,,A*79
$GPVTG,,T,,M,0.819,N,1.517,K,A*21
$GPGGA,134821.00,2254.23393,S,04700.65111,W,1,07,1.08,721.4,M,-5.6,M,,*46
$GPGSA,A,3,20,24,06,12,29,05,02,,,,,,2.09,1.08,1.79*02
$GPGSV,3,1,11,02,65,128,34,05,19,033,29,06,18,142,25,11,54,125,37*7C
$GPGSV,3,2,11,12,54,176,24,15,02,354,22,20,28,065,29,24,58,336,32*74
$GPGSV,3,3,11,25,32,214,26,29,34,264,15,32,00,249,*4A
$GPGLL,2254.23393,S,04700.65111,W,134821.00,A,A*63
$GPRMC,134822.00,A,2254.23386,S,04700.65140,W,1.071,,221121,,,A*7D
$GPVTG,,T,,M,1.071,N,1.983,K,A*27
$GPGGA,134822.00,2254.23386,S,04700.65140,W,1,07,1.08,721.1,M,-5.6,M,,*40
$GPGSA,A,3,20,24,06,12,29,05,02,,,,,,2.09,1.08,1.79*02
$GPGSV,3,1,11,02,65,128,38,05,19,033,36,06,18,142,31,11,54,125,39*75
$GPGSV,3,2,11,12,54,176,31,15,02,354,23,20,28,065,34,24,58,336,32*7D
$GPGSV,3,3,11,25,32,214,26,29,34,264,27,32,00,249,*4B
$GPGLL,2254.23386,S,04700.65140,W,134822.00,A,A*60
$GPRMC,134823.00,A,2254.23380,S,04700.65156,W,0.471,,221121,,,A*78
$GPVTG,,T,,M,0.471,N,0.873,K,A*2D
$GPGGA,134823.00,2254.23380,S,04700.65156,W,1,07,1.08,720.7,M,-5.6,M,,*47
$GPGSA,A,3,20,24,06,12,29,05,02,,,,,,2.09,1.08,1.79*02
$GPGSV,3,1,11,02,65,128,38,05,19,033,33,06,18,142,35,11,54,125,36*7B
$GPGSV,3,2,11,12,54,176,31,15,02,354,25,20,28,065,36,24,58,336,35*7E
$GPGSV,3,3,11,25,32,214,24,29,34,264,29,32,00,249,*47
$GPGLL,2254.23380,S,04700.65156,W,134823.00,A,A*60
$GPRMC,134824.00,A,2254.23385,S,04700.65141,W,0.671,,221121,,,A*7E
$GPVTG,,T,,M,0.671,N,1.242,K,A*26
$GPGGA,134824.00,2254.23385,S,04700.65141,W,1,07,1.08,720.7,M,-5.6,M,,*43
$GPGSA,A,3,20,24,06,12,29,05,02,,,,,,2.09,1.08,1.79*02
$GPGSV,3,1,11,02,65,128,40,05,19,033,36,06,18,142,34,11,54,125,38*7E
$GPGSV,3,2,11,12,54,176,32,15,02,354,27,20,28,065,36,24,58,336,35*7F
$GPGSV,3,3,11,25,32,214,23,29,34,264,30,32,00,249,*48
$GPGLL,2254.23385,S,04700.65141,W,134824.00,A,A*64
$GPRMC,134825.00,A,2254.23424,S,04700.65099,W,2.218,175.35,221121,,,A*65
$GPVTG,175.35,T,,M,2.218,N,4.107,K,A*33
$GPGGA,134825.00,2254.23424,S,04700.65099,W,1,07,1.08,720.5,M,-5.6,M,,*48
$GPGSA,A,3,20,24,06,12,29,05,02,,,,,,2.09,1.08,1.79*02
$GPGSV,3,1,11,02,65,128,37,05,19,033,27,06,18,142,34,11,54,125,36*70
$GPGSV,3,2,11,12,54,176,33,15,02,354,27,20,28,065,33,24,57,336,35*74
$GPGSV,3,3,11,25,32,214,31,29,34,264,29,32,00,249,*43
$GPGLL,2254.23424,S,04700.65099,W,134825.00,A,A*6D
$GPRMC,134826.00,A,2254.23502,S,04700.65023,W,4.035,146.36,221121,,,A*6A
$GPVTG,146.36,T,,M,4.035,N,7.473,K,A*3E
$GPGGA,134826.00,2254.23502,S,04700.65023,W,1,07,1.08,720.3,M,-5.6,M,,*49
$GPGSA,A,3,20,24,06,12,29,05,02,,,,,,2.09,1.08,1.79*02
$GPGSV,3,1,11,02,65,128,36,05,19,033,25,06,18,142,33,11,54,125,33*71
$GPGSV,3,2,11,12,54,176,29,15,02,354,25,20,28,065,35,24,57,336,35*7B
$GPGSV,3,3,11,25,33,214,30,29,34,264,27,32,00,249,*4D
$GPGLL,2254.23502,S,04700.65023,W,134826.00,A,A*6A
$GPRMC,134827.00,A,2254.23628,S,04700.64898,W,6.536,138.16,221121,,,A*66
$GPVTG,138.16,T,,M,6.536,N,12.105,K,A*01
$GPGGA,134827.00,2254.23628,S,04700.64898,W,1,07,1.08,720.4,M,-5.6,M,,*4D
$GPGSA,A,3,20,24,06,12,29,05,02,,,,,,2.09,1.08,1.79*02
$GPGSV,3,1,11,02,65,128,37,05,19,033,32,06,18,142,34,11,54,125,38*7A
$GPGSV,3,2,11,12,54,176,33,15,02,354,26,20,28,065,37,24,57,336,37*73
$GPGSV,3,3,11,25,33,214,31,29,34,264,32,32,00,249,*48
$GPGLL,2254.23628,S,04700.64898,W,134827.00,A,A*69
$GPRMC,134828.00,A,2254.23793,S,04700.64730,W,8.541,135.70,221121,,,A*66
$GPVTG,135.70,T,,M,8.541,N,15.817,K,A*0F
$GPGGA,134828.00,2254.23793,S,04700.64730,W,1,07,1.08,720.2,M,-5.6,M,,*48
$GPGSA,A,3,20,24,06,12,29,05,02,,,,,,2.09,1.08,1.79*02
$GPGSV,3,1,11,02,65,128,34,05,19,033,35,06,18,142,34,11,54,125,33*75
$GPGSV,3,2,11,12,54,176,33,15,02,354,25,20,28,065,34,24,57,336,35*71
$GPGSV,3,3,11,25,33,214,30,29,34,264,28,32,00,249,*42
$GPGLL,2254.23793,S,04700.64730,W,134828.00,A,A*6A
$GPRMC,134829.00,A,2254.23981,S,04700.64518,W,10.106,133.18,221121,,,A*54
$GPVTG,133.18,T,,M,10.106,N,18.716,K,A*3A
$GPGGA,134829.00,2254.23981,S,04700.64518,W,1,07,1.08,720.1,M,-5.6,M,,*4F
$GPGSA,A,3,20,24,06,12,29,05,02,,,,,,2.09,1.08,1.79*02
$GPGSV,3,1,11,02,65,128,33,05,19,033,27,06,18,142,33,11,54,125,36*73
$GPGSV,3,2,11,12,54,176,32,15,02,354,22,20,28,065,35,24,57,336,35*76
$GPGSV,3,3,11,25,33,214,22,29,34,264,29,32,00,249,*40
$GPGLL,2254.23981,S,04700.64518,W,134829.00,A,A*6E
$GPRMC,134830.00,A,2254.24185,S,04700.64269,W,11.356,130.86,221121,,,A*54
$GPVTG,130.86,T,,M,11.356,N,21.031,K,A*30
$GPGGA,134830.00,2254.24185,S,04700.64269,W,1,07,1.08,719.9,M,-5.6,M,,*4F
$GPGSA,A,3,20,24,06,12,29,05,02,,,,,,2.09,1.08,1.79*02
$GPGSV,3,1,11,02,65,128,33,05,19,033,27,06,18,142,33,11,54,125,32*77
$GPGSV,3,2,11,12,54,176,31,15,02,354,18,20,28,065,34,24,57,336,34*7C
$GPGSV,3,3,11,25,33,214,22,29,35,264,28,32,00,249,*40
$GPGLL,2254.24185,S,04700.64269,W,134830.00,A,A*6C
$GPRMC,134831.00,A,2254.24382,S,04700.63990,W,11.749,127.41,221121,,,A*5D
$GPVTG,127.41,T,,M,11.749,N,21.759,K,A*3E
$GPGGA,134831.00,2254.24382,S,04700.63990,W,1,07,1.08,719.6,M,-5.6,M,,*4E
$GPGSA,A,3,20,24,06,12,29,05,02,,,,,,2.09,1.08,1.79*02
$GPGSV,3,1,11,02,65,128,37,05,19,033,27,06,18,142,29,11,54,125,37*7D
$GPGSV,3,2,11,12,54,176,30,15,02,354,16,20,28,065,37,24,57,336,34*70
$GPGSV,3,3,11,25,33,214,24,29,35,264,22,32,00,249,*4C
$GPGLL,2254.24382,S,04700.63990,W,134831.00,A,A*62
$GPRMC,134832.00,A,2254.24561,S,04700.63706,W,11.429,124.52,221121,,,A*50
$GPVTG,124.52,T,,M,11.429,N,21.167,K,A*31
$GPGGA,134832.00,2254.24561,S,04700.63706,W,1,07,1.08,719.3,M,-5.6,M,,*42
$GPGSA,A,3,20,24,06,12,29,05,02,,,,,,2.09,1.08,1.79*02
$GPGSV,3,1,11,02,65,128,37,05,19,033,28,06,18,142,30,11,54,125,35*78
$GPGSV,3,2,11,12,54,176,31,15,02,354,14,20,28,065,33,24,57,336,34*77
$GPGSV,3,3,11,25,33,214,26,29,35,264,28,32,00,249,*44
$GPGLL,2254.24561,S,04700.63706,W,134832.00,A,A*6B
$GPRMC,134833.00,A,2254.24709,S,04700.63445,W,9.788,121.83,221121,,,A*61
$GPVTG,121.83,T,,M,9.788,N,18.127,K,A*07
$GPGGA,134833.00,2254.24709,S,04700.63445,W,1,07,1.08,718.9,M,-5.6,M,,*40
$GPGSA,A,3,20,24,06,12,29,05,02,,,,,,2.09,1.08,1.79*02
$GPGSV,3,1,11,02,65,128,35,05,19,033,27,06,18,142,30,11,54,125,34*74
$GPGSV,3,2,11,12,54,176,30,15,02,354,11,20,28,065,33,24,57,336,34*73
$GPGSV,3,3,11,25,33,214,24,29,35,264,27,32,00,249,*49
$GPGLL,2254.24709,S,04700.63445,W,134833.00,A,A*62
$GPRMC,134834.00,A,2254.24813,S,04700.63191,W,9.038,115.08,221121,,,A*66
$GPVTG,115.08,T,,M,9.038,N,16.739,K,A*08
$GPGGA,134834.00,2254.24813,S,04700.63191,W,1,07,1.08,718.8,M,-5.6,M,,*4E
$GPGSA,A,3,20,24,06,12,29,05,02,,,,,,2.09,1.08,1.79*02
$GPGSV,3,1,11,02,65,128,32,05,19,033,26,06,18,142,31,11,54,125,34*73
$GPGSV,3,2,11,12,54,176,29,15,02,354,11,20,28,065,36,24,57,336,34*7E
$GPGSV,3,3,11,25,33,214,24,29,35,264,25,32,00,249,*4B
$GPGLL,2254.24813,S,04700.63191,W,134834.00,A,A*6D
$GPRMC,134835.00,A,2254.24825,S,04700.62925,W,8.853,108.12,221121,,,A*67
$GPVTG,108.12,T,,M,8.853,N,16.396,K,A*0A
$GPGGA,134835.00,2254.24825,S,04700.62925,W,1,07,1.08,718.8,M,-5.6,M,,*4C
$GPGSA,A,3,20,24,06,12,29,05,02,,,,,,2.09,1.08,1.79*02
$GPGSV,3,1,11,02,65,128,27,05,19,033,26,06,18,142,24,11,54,125,30*77
$GPGSV,3,2,11,12,54,176,19,15,02,354,10,20,28,065,29,24,57,336,23*74
$GPGSV,3,3,11,25,33,214,21,29,35,264,22,32,00,249,*49
$GPGLL,2254.24825,S,04700.62925,W,134835.00,A,A*6F
$GPRMC,134836.00,A,2254.24756,S,04700.62745,W,7.187,82.10,221121,,,A*59
$GPVTG,82.10,T,,M,7.187,N,13.309,K,A*37
$GPGGA,134836.00,2254.24756,S,04700.62745,W,1,07,1.08,718.7,M,-5.6,M,,*43
$GPGSA,A,3,20,24,06,12,29,05,02,,,,,,2.09,1.08,1.80*04
$GPGSV,3,1,11,02,65,128,36,05,19,033,33,06,18,142,36,11,54,125,31*71
$GPGSV,3,2,11,12,54,176,28,15,02,354,11,20,28,065,40,24,57,336,31*7B
$GPGSV,3,3,11,25,33,214,23,29,35,264,24,32,00,249,*4D
$GPGLL,2254.24756,S,04700.62745,W,134836.00,A,A*6F
$GPRMC,134837.00,A,2254.24638,S,04700.62607,W,6.083,69.11,221121,,,A*56
$GPVTG,69.11,T,,M,6.083,N,11.266,K,A*3D
$GPGGA,134837.00,2254.24638,S,04700.62607,W,1,07,1.08,718.9,M,-5.6,M,,*42
$GPGSA,A,3,20,24,06,12,29,05,02,,,,,,2.09,1.08,1.80*04
$GPGSV,3,1,11,02,65,128,28,05,19,033,29,06,18,142,22,11,54,125,23*73
$GPGSV,3,2,11,12,54,176,20,15,02,354,11,20,28,065,29,24,57,336,35*78
$GPGSV,3,3,11,25,33,214,23,29,35,264,24,32,00,249,*4D
$GPGLL,2254.24638,S,04700.62607,W,134837.00,A,A*60
$GPRMC,134838.00,A,2254.24520,S,04700.62546,W,4.419,36.74,221121,,,A*59
$GPVTG,36.74,T,,M,4.419,N,8.184,K,A*06
$GPGGA,134838.00,2254.24520,S,04700.62546,W,1,07,1.08,719.2,M,-5.6,M,,*4B
$GPGSA,A,3,20,24,06,12,29,05,02,,,,,,2.09,1.08,1.80*04
$GPGSV,3,1,11,02,65,128,37,05,19,033,29,06,18,142,22,11,54,125,22*7C
$GPGSV,3,2,11,12,54,176,29,15,02,354,,20,28,065,38,24,57,336,40*73
$GPGSV,3,3,11,25,33,214,30,29,35,264,34,32,00,249,*4E
$GPGLL,2254.24520,S,04700.62546,W,134838.00,A,A*63
$GPRMC,134839.00,A,2254.24371,S,04700.62531,W,4.965,6.19,221121,,,A*64
$GPVTG,6.19,T,,M,4.965,N,9.194,K,A*38
$GPGGA,134839.00,2254.24371,S,04700.62531,W,1,07,1.08,719.4,M,-5.6,M,,*4E
$GPGSA,A,3,20,24,06,12,29,05,02,,,,,,2.09,1.08,1.80*04
$GPGSV,3,1,11,02,65,128,39,05,19,033,36,06,18,142,24,11,54,125,29*71
$GPGSV,3,2,11,12,54,176,29,15,02,354,,20,28,065,38,24,57,336,36*72
$GPGSV,3,3,11,25,33,214,34,29,35,264,39,32,00,249,*47
$GPGLL,2254.24371,S,04700.62531,W,134839.00,A,A*60
$GPRMC,134840.00,A,2254.24211,S,04700.62575,W,6.088,350.51,221121,,,A*69
$GPVTG,350.51,T,,M,6.088,N,11.274,K,A*08
$GPGGA,134840.00,2254.24211,S,04700.62575,W,1,07,1.08,719.6,M,-5.6,M,,*45
$GPGSA,A,3,20,24,06,12,29,05,02,,,,,,2.09,1.08,1.80*04
$GPGSV,3,1,11,02,65,128,38,05,19,033,33,06,18,142,30,11,54,125,29*70
$GPGSV,3,2,11,12,54,176,20,15,02,354,14,20,28,065,33,24,57,336,33*70
$GPGSV,3,3,11,25,33,214,30,29,35,264,36,32,00,249,*4C
$GPGLL,2254.24211,S,04700.62575,W,134840.00,A,A*69
$GPRMC,134841.00,A,2254.24042,S,04700.62675,W,7.163,339.80,221121,,,A*69
$GPVTG,339.80,T,,M,7.163,N,13.266,K,A*0F
$GPGGA,134841.00,2254.24042,S,04700.62675,W,1,07,1.08,719.6,M,-5.6,M,,*43
$GPGSA,A,3,20,24,06,12,29,05,02,,,,,,2.09,1.08,1.80*04
$GPGSV,3,1,11,02,65,128,36,05,19,033,33,06,18,142,30,11,54,125,28*7F
$GPGSV,3,2,11,12,54,176,36,15,02,354,12,20,28,065,27,24,57,336,36*71
$GPGSV,3,3,11,25,33,214,34,29,35,264,28,32,00,249,*47
$GPGLL,2254.24042,S,04700.62675,W,134841.00,A,A*6F
$GPRMC,134842.00,A,2254.23884,S,04700.62819,W,7.671,325.80,221121,,,A*62
$GPVTG,325.80,T,,M,7.671,N,14.207,K,A*06
$GPGGA,134842.00,2254.23884,S,04700.62819,W,1,07,1.08,719.9,M,-5.6,M,,*4E
$GPGSA,A,3,20,24,06,12,29,05,02,,,,,,2.09,1.08,1.80*04
$GPGSV,3,1,11,02,65,128,28,05,19,033,29,06,18,142,21,11,54,125,21*72
$GPGSV,3,2,11,12,54,176,33,15,02,354,12,20,28,065,24,24,57,336,29*79
$GPGSV,3,3,11,25,33,214,30,29,35,264,33,32,00,249,*49
$GPGLL,2254.23884,S,04700.62819,W,134842.00,A,A*6D
$GPRMC,134843.00,A,2254.23749,S,04700.62983,W,7.254,320.61,221121,,,A*66
$GPVTG,320.61,T,,M,7.254,N,13.434,K,A*0E
$GPGGA,134843.00,2254.23749,S,04700.62983,W,1,07,1.08,720.1,M,-5.6,M,,*41
$GPGSA,A,3,20,24,06,12,29,05,02,,,,,,2.09,1.08,1.80*04
$GPGSV,3,1,11,02,65,128,21,05,19,033,20,06,18,142,20,11,54,125,19*78
$GPGSV,3,2,11,12,54,176,28,15,02,354,11,20,28,065,23,24,57,336,31*7E
$GPGSV,3,3,11,25,33,214,30,29,35,264,32,32,00,249,*48
$GPGLL,2254.23749,S,04700.62983,W,134843.00,A,A*60
$GPRMC,134844.00,A,2254.23635,S,04700.63146,W,6.983,311.80,221121,,,A*66
$GPVTG,311.80,T,,M,6.983,N,12.933,K,A*08
$GPGGA,134844.00,2254.23635,S,04700.63146,W,1,07,1.08,720.4,M,-5.6,M,,*49
$GPGSA,A,3,20,24,06,12,29,05,02,,,,,,2.09,1.08,1.80*04
$GPGSV,3,1,11,02,65,128,20,05,19,033,22,06,18,142,20,11,54,125,22*73
$GPGSV,3,2,11,12,54,176,27,15,02,354,09,20,28,065,29,24,57,336,31*72
$GPGSV,3,3,11,25,33,214,31,29,35,264,34,32,00,249,*4F
$GPGLL,2254.23635,S,04700.63146,W,134844.00,A,A*6D
$GPRMC,134845.00,A,2254.23540,S,04700.63288,W,6.247,307.31,221121,,,A*69
$GPVTG,307.31,T,,M,6.247,N,11.570,K,A*0E
$GPGGA,134845.00,2254.23540,S,04700.63288,W,1,07,1.08,720.8,M,-5.6,M,,*44
$GPGSA,A,3,20,24,06,12,29,05,02,,,,,,2.09,1.08,1.80*04
$GPGSV,3,1,11,02,65,128,19,05,19,033,19,06,18,142,23,11,54,125,26*76
$GPGSV,3,2,11,12,54,176,28,15,02,354,09,20,28,065,29,24,57,336,38*74
$GPGSV,3,3,11,25,33,214,35,29,35,264,39,32,00,249,*46
$GPGLL,2254.23540,S,04700.63288,W,134845.00,A,A*6C
$GPRMC,134846.00,A,2254.23451,S,04700.63420,W,5.398,307.70,221121,,,A*6A
$GPVTG,307.70,T,,M,5.398,N,9.997,K,A*37
$GPGGA,134846.00,2254.23451,S,04700.63420,W,1,07,1.08,720.9,M,-5.6,M,,*43
$GPGSA,A,3,20,24,06,12,29,05,02,,,,,,2.09,1.08,1.80*04
$GPGSV,3,1,11,02,65,128,17,05,19,033,15,06,18,142,24,11,54,125,27*72
$GPGSV,3,2,11,12,54,176,29,15,02,354,08,20,28,065,30,24,57,336,35*71
$GPGSV,3,3,11,25,33,214,33,29,35,264,36,32,00,249,*4F
$GPGLL,2254.23451,S,04700.63420,W,134846.00,A,A*6A
$GPRMC,134847.00,A,2254.23366,S,04700.63533,W,4.942,309.19,221121,,,A*66
$GPVTG,309.19,T,,M,4.942,N,9.152,K,A*3B
$GPGGA,134847.00,2254.23366,S,04700.63533,W,1,07,1.08,720.6,M,-5.6,M,,*4D
$GPGSA,A,3,20,24,06,12,29,05,02,,,,,,2.09,1.08,1.80*04
$GPGSV,3,1,11,02,65,128,16,05,19,033,14,06,18,142,25,11,54,125,28*7C
$GPGSV,3,2,11,12,54,176,34,15,02,354,08,20,28,065,30,24,57,336,39*71
$GPGSV,3,3,11,25,33,214,36,29,35,264,41,32,00,249,*4A
$GPGLL,2254.23366,S,04700.63533,W,134847.00,A,A*6B
$GPRMC,134848.00,A,2254.23277,S,04700.63662,W,5.672,309.10,221121,,,A*6B
$GPVTG,309.10,T,,M,5.672,N,10.504,K,A*00
$GPGGA,134848.00,2254.23277,S,04700.63662,W,1,06,1.22,720.5,M,-5.6,M,,*4E
$GPGSA,A,3,20,24,06,12,29,02,,,,,,,2.35,1.22,2.01*0C
$GPGSV,3,1,12,02,65,128,19,05,19,033,,06,18,142,26,11,54,125,28*76
$GPGSV,3,2,12,12,54,176,36,15,02,354,08,20,28,065,30,24,57,336,39*70
$GPGSV,3,3,12,25,33,214,36,29,35,264,41,32,00,249,,51,19,282,40*79
$GPGLL,2254.23277,S,04700.63662,W,134848.00,A,A*62
$GPRMC,134849.00,A,2254.23166,S,04700.63814,W,7.055,309.14,221121,,,A*63
$GPVTG,309.14,T,,M,7.055,N,13.065,K,A*04
$GPGGA,134849.00,2254.23166,S,04700.63814,W,1,06,1.22,720.5,M,-5.6,M,,*43
$GPGSA,A,3,20,24,06,12,29,02,,,,,,,2.35,1.22,2.01*0C
$GPGSV,3,1,12,02,65,128,18,05,19,033,,06,18,142,26,11,54,125,28*77
$GPGSV,3,2,12,12,54,176,34,15,02,354,,20,28,065,29,24,57,336,35*7E
$GPGSV,3,3,12,25,33,214,32,29,35,264,37,32,00,249,,51,19,282,36*7D
$GPGLL,2254.23166,S,04700.63814,W,134849.00,A,A*6F
$GPRMC,134850.00,A,2254.23022,S,04700.64004,W,8.855,310.09,221121,,,A*67
$GPVTG,310.09,T,,M,8.855,N,16.400,K,A*05
$GPGGA,134850.00,2254.23022,S,04700.64004,W,1,06,1.22,720.7,M,-5.6,M,,*46
$GPGSA,A,3,20,24,06,12,29,02,,,,,,,2.35,1.22,2.01*0C
$GPGSV,3,1,12,02,65,128,18,05,19,033,,06,18,142,25,11,54,125,26*7A
$GPGSV,3,2,12,12,54,176,33,15,02,354,,20,28,065,26,24,57,336,35*76
$GPGSV,3,3,12,25,33,214,32,29,35,264,37,32,00,249,,51,19,282,33*78
$GPGLL,2254.23022,S,04700.64004,W,134850.00,A,A*68
$GPRMC,134851.00,A,2254.22843,S,04700.64226,W,10.664,311.19,221121,,,A*5F
$GPVTG,311.19,T,,M,10.664,N,19.749,K,A*31
$GPGGA,134851.00,2254.22843,S,04700.64226,W,1,07,1.22,720.3,M,-5.6,M,,*4E
$GPGSA,A,3,20,24,06,12,29,05,02,,,,,,2.35,1.22,2.01*09
$GPGSV,3,1,12,02,65,128,21,05,19,033,13,06,18,142,25,11,54,125,27*73
$GPGSV,3,2,12,12,54,176,35,15,02,354,,20,28,065,23,24,57,336,37*77
$GPGSV,3,3,12,25,33,214,35,29,35,264,38,32,00,249,,51,19,282,35*76
$GPGLL,2254.22843,S,04700.64226,W,134851.00,A,A*65
$GPRMC,134852.00,A,2254.22624,S,04700.64506,W,12.695,309.55,221121,,,A*5B
$GPVTG,309.55,T,,M,12.695,N,23.512,K,A*39
$GPGGA,134852.00,2254.22624,S,04700.64506,W,1,07,1.22,719.7,M,-5.6,M,,*49
$GPGSA,A,3,20,24,06,12,29,05,02,,,,,,2.35,1.22,2.01*09
$GPGSV,3,1,12,02,65,128,24,05,19,033,21,06,18,142,25,11,54,125,28*78
$GPGSV,3,2,12,12,54,176,36,15,02,354,12,20,28,065,23,24,57,336,39*79
$GPGSV,3,3,12,25,33,214,36,29,35,264,39,32,00,249,,51,19,282,37*76
$GPGLL,2254.22624,S,04700.64506,W,134852.00,A,A*6C
$GPRMC,134853.00,A,2254.22386,S,04700.64830,W,14.179,308.27,221121,,,A*58
$GPVTG,308.27,T,,M,14.179,N,26.259,K,A*33
$GPGGA,134853.00,2254.22386,S,04700.64830,W,1,07,1.08,719.4,M,-5.6,M,,*46
$GPGSA,A,3,20,24,06,12,29,05,02,,,,,,2.09,1.08,1.80*04
$GPGSV,3,1,12,02,65,128,26,05,19,033,30,06,18,142,25,11,54,125,29*7B
$GPGSV,3,2,12,12,54,176,36,15,02,354,13,20,28,065,22,24,57,336,37*77
$GPGSV,3,3,12,25,33,214,35,29,35,264,38,32,00,249,,51,19,282,38*7B
$GPGLL,2254.22386,S,04700.64830,W,134853.00,A,A*68
$GPRMC,134854.00,A,2254.22136,S,04700.65181,W,15.119,307.92,221121,,,A*52
$GPVTG,307.92,T,,M,15.119,N,28.001,K,A*34
$GPGGA,134854.00,2254.22136,S,04700.65181,W,1,07,1.08,718.7,M,-5.6,M,,*48
$GPGSA,A,3,20,24,06,12,29,05,02,,,,,,2.09,1.08,1.80*04
$GPGSV,3,1,12,02,65,128,27,05,19,033,30,06,18,142,27,11,54,125,30*70
$GPGSV,3,2,12,12,54,176,36,15,02,354,11,20,28,065,30,24,57,336,40*76
$GPGSV,3,3,12,25,33,214,35,29,35,264,41,32,00,249,,51,19,282,36*7B
$GPGLL,2254.22136,S,04700.65181,W,134854.00,A,A*64
$GPRMC,134855.00,A,2254.21868,S,04700.65545,W,15.759,309.15,221121,,,A*5D
$GPVTG,309.15,T,,M,15.759,N,29.186,K,A*38
$GPGGA,134855.00,2254.21868,S,04700.65545,W,1,07,1.08,718.2,M,-5.6,M,,*41
$GPGSA,A,3,20,24,06,12,29,05,02,,,,,,2.09,1.08,1.80*04
$GPGSV,3,1,12,02,65,128,27,05,19,033,29,06,18,142,28,11,54,125,30*77
$GPGSV,3,2,12,12,54,176,36,15,02,354,16,20,28,065,30,24,57,336,39*7F
$GPGSV,3,3,12,25,33,214,36,29,35,264,40,32,00,249,,51,19,282,27*79
$GPGLL,2254.21868,S,04700.65545,W,134855.00,A,A*68
$GPRMC,134856.00,A,2254.21566,S,04700.65930,W,16.713,311.12,221121,,,A*50
$GPVTG,311.12,T,,M,16.713,N,30.952,K,A*32
$GPGGA,134856.00,2254.21566,S,04700.65930,W,1,07,1.08,717.9,M,-5.6,M,,*4B
$GPGSA,A,3,20,24,06,12,29,05,02,,,,,,2.09,1.08,1.80*04
$GPGSV,3,1,12,02,65,128,26,05,19,033,30,06,18,142,28,11,54,125,29*76
$GPGSV,3,2,12,12,54,176,37,15,02,354,19,20,28,065,30,24,57,336,36*7E
$GPGSV,3,3,12,25,33,214,38,29,35,264,26,32,00,249,,51,19,282,27*77
$GPGLL,2254.21566,S,04700.65930,W,134856.00,A,A*66
$GPRMC,134857.00,A,2254.21226,S,04700.66397,W,20.369,308.53,221121,,,A*57
$GPVTG,308.53,T,,M,20.369,N,37.723,K,A*3C
$GPGGA,134857.00,2254.21226,S,04700.66397,W,1,07,1.08,717.0,M,-5.6,M,,*44
$GPGSA,A,3,20,24,06,12,29,05,02,,,,,,2.09,1.08,1.80*04
$GPGSV,3,1,12,02,65,128,26,05,19,033,30,06,18,142,28,11,54,125,29*76
$GPGSV,3,2,12,12,54,176,36,15,02,354,21,20,28,065,30,24,57,336,28*7B
$GPGSV,3,3,12,25,33,214,31,29,35,264,31,32,00,249,,51,19,282,32*7C
$GPGLL,2254.21226,S,04700.66397,W,134857.00,A,A*60
$GPRMC,134858.00,A,2254.20894,S,04700.66830,W,18.730,310.38,221121,,,A*5B
$GPVTG,310.38,T,,M,18.730,N,34.688,K,A*38
$GPGGA,134858.00,2254.20894,S,04700.66830,W,1,07,1.08,717.3,M,-5.6,M,,*4C
$GPGSA,A,3,20,24,06,12,29,05,02,,,,,,2.10,1.08,1.80*0C
$GPGSV,3,1,12,02,65,128,26,05,19,033,29,06,18,142,28,11,54,125,30*76
$GPGSV,3,2,12,12,54,176,26,15,02,354,24,20,28,065,30,24,57,336,38*7E
$GPGSV,3,3,12,25,33,214,31,29,35,264,39,32,00,249,,51,19,282,33*75
$GPGLL,2254.20894,S,04700.66830,W,134858.00,A,A*6B
$GPRMC,134859.00,A,2254.20536,S,04700.67282,W,19.685,309.70,221121,,,A*57
$GPVTG,309.70,T,,M,19.685,N,36.457,K,A*30
$GPGGA,134859.00,2254.20536,S,04700.67282,W,1,07,1.08,716.6,M,-5.6,M,,*4E
$GPGSA,A,3,20,24,06,12,29,05,02,,,,,,2.10,1.08,1.80*0C
$GPGSV,3,1,12,02,65,128,26,05,19,033,29,06,18,142,26,11,54,125,33*7B
$GPGSV,3,2,12,12,54,176,38,15,02,354,23,20,28,065,31,24,57,336,38*77
$GPGSV,3,3,12,25,33,214,37,29,35,264,41,32,00,249,,51,19,282,39*76
$GPGLL,2254.20536,S,04700.67282,W,134859.00,A,A*6D
$GPRMC,134900.00,A,2254.20157,S,04700.67760,W,20.898,309.85,221121,,,A*52
$GPVTG,309.85,T,,M,20.898,N,38.703,K,A*3E
$GPGGA,134900.00,2254.20157,S,04700.67760,W,1,07,1.08,716.2,M,-5.6,M,,*4D
$GPGSA,A,3,20,24,06,12,29,05,02,,,,,,2.10,1.08,1.80*0C
$GPGSV,3,1,12,02,65,128,27,05,19,033,30,06,18,142,23,11,54,125,33*77
$GPGSV,3,2,12,12,54,176,37,15,02,354,21,20,28,065,32,24,57,336,38*79
$GPGSV,3,3,12,25,33,214,38,29,35,264,42,32,00,249,,51,19,282,39*7A
$GPGLL,2254.20157,S,04700.67760,W,134900.00,A,A*6A
$GPRMC,134901.00,A,2254.19784,S,04700.68240,W,20.877,311.03,221121,,,A*5F
$GPVTG,311.03,T,,M,20.877,N,38.664,K,A*38
$GPGGA,134901.00,2254.19784,S,04700.68240,W,1,07,1.08,715.7,M,-5.6,M,,*40
$GPGSA,A,3,20,24,06,12,29,05,02,,,,,,2.10,1.08,1.80*0C
$GPGSV,3,1,12,02,65,128,27,05,19,033,25,06,18,142,20,11,54,125,33*70
$GPGSV,3,2,12,12,54,176,37,15,02,354,20,20,28,065,32,24,57,336,33*73
$GPGSV,3,3,12,25,33,214,37,29,35,264,42,32,00,249,,51,19,282,35*79
$GPGLL,2254.19784,S,04700.68240,W,134901.00,A,A*61
$GPRMC,134902.00,A,2254.19399,S,04700.68690,W,20.245,313.08,221121,,,A*5F
$GPVTG,313.08,T,,M,20.245,N,37.494,K,A*38
$GPGGA,134902.00,2254.19399,S,04700.68690,W,1,07,1.08,715.0,M,-5.6,M,,*45
$GPGSA,A,3,20,24,06,12,29,05,02,,,,,,2.10,1.08,1.80*0C
$GPGSV,3,1,12,02,65,128,27,05,19,033,24,06,18,142,18,11,54,125,33*7A
$GPGSV,3,2,12,12,54,176,36,15,02,354,30,20,28,065,27,24,57,336,36*72
$GPGSV,3,3,12,25,33,214,31,29,35,264,40,32,00,249,,51,19,282,38*70
$GPGLL,2254.19399,S,04700.68690,W,134902.00,A,A*63
$GPRMC,134903.00,A,2254.19044,S,04700.69123,W,19.617,312.43,221121,,,A*54
$GPVTG,312.43,T,,M,19.617,N,36.330,K,A*37
$GPGGA,134903.00,2254.19044,S,04700.69123,W,1,07,1.08,713.2,M,-5.6,M,,*4D
$GPGSA,A,3,20,24,06,12,29,05,02,,,,,,2.10,1.08,1.80*0C
$GPGSV,3,1,12,02,65,128,27,05,19,033,21,06,18,142,21,11,54,125,31*77
$GPGSV,3,2,12,12,54,176,36,15,02,354,34,20,28,065,25,24,57,336,40*75
$GPGSV,3,3,12,25,33,214,38,29,35,264,41,32,00,249,,51,19,282,38*78
$GPGLL,2254.19044,S,04700.69123,W,134903.00,A,A*6F
$GPRMC,134904.00,A,2254.18690,S,04700.69526,W,18.456,313.96,221121,,,A*53
$GPVTG,313.96,T,,M,18.456,N,34.180,K,A*33
$GPGGA,134904.00,2254.18690,S,04700.69526,W,1,07,1.08,712.1,M,-5.6,M,,*47
$GPGSA,A,3,20,24,06,12,29,05,02,,,,,,2.10,1.08,1.80*0C
$GPGSV,3,1,12,02,65,128,27,05,19,033,29,06,18,142,23,11,54,125,34*78
$GPGSV,3,2,12,12,54,176,39,15,02,354,31,20,28,065,23,24,57,336,41*78
$GPGSV,3,3,12,25,33,214,40,29,35,264,42,32,00,249,,51,19,282,38*74
$GPGLL,2254.18690,S,04700.69526,W,134904.00,A,A*67
$GPRMC,134905.00,A,2254.18320,S,04700.69926,W,18.449,315.64,221121,,,A*55
$GPVTG,315.64,T,,M,18.449,N,34.167,K,A*3F
$GPGGA,134905.00,2254.18320,S,04700.69926,W,1,07,1.08,711.2,M,-5.6,M,,*44
$GPGSA,A,3,20,24,06,12,29,05,02,,,,,,2.10,1.08,1.80*0C
$GPGSV,3,1,12,02,65,128,27,05,19,033,33,06,18,142,31,11,54,125,33*77
$GPGSV,3,2,12,12,54,176,41,15,02,354,30,20,28,065,30,24,57,336,42*77
$GPGSV,3,3,12,25,33,214,42,29,35,264,42,32,00,249,,51,19,282,30*7E
$GPGLL,2254.18320,S,04700.69926,W,134905.00,A,A*64
$GPRMC,134906.00,A,2254.17966,S,04700.70303,W,17.947,318.47,221121,,,A*54
$GPVTG,318.47,T,,M,17.947,N,33.237,K,A*3E
$GPGGA,134906.00,2254.17966,S,04700.70303,W,1,07,1.08,710.7,M,-5.6,M,,*41
$GPGSA,A,3,20,24,06,12,29,05,02,,,,,,2.10,1.08,1.80*0C
$GPGSV,3,1,12,02,65,128,26,05,19,033,38,06,18,142,25,11,54,125,33*78
$GPGSV,3,2,12,12,54,176,41,15,02,354,20,20,28,065,31,24,57,336,41*74
$GPGSV,3,3,12,25,33,214,43,29,35,264,30,32,00,249,,51,19,282,28*73
$GPGLL,2254.17966,S,04700.70303,W,134906.00,A,A*65
$GPRMC,134907.00,A,2254.17590,S,04700.70639,W,17.620,322.63,221121,,,A*5D
$GPVTG,322.63,T,,M,17.620,N,32.633,K,A*3E
$GPGGA,134907.00,2254.17590,S,04700.70639,W,1,07,1.08,709.6,M,-5.6,M,,*40
$GPGSA,A,3,20,24,06,12,29,05,02,,,,,,2.10,1.08,1.80*0C
$GPGSV,3,1,12,02,65,128,25,05,19,033,39,06,18,142,28,11,54,125,32*76
$GPGSV,3,2,12,12,54,176,39,15,02,354,19,20,28,065,31,24,57,336,42*72
$GPGSV,3,3,12,25,33,214,33,29,35,264,28,32,00,249,,51,19,282,28*7D
$GPGLL,2254.17590,S,04700.70639,W,134907.00,A,A*6D
$GPRMC,134908.00,A,2254.17201,S,04700.70955,W,17.712,325.39,221121,,,A*50
$GPVTG,325.39,T,,M,17.712,N,32.802,K,A*3A
$GPGGA,134908.00,2254.17201,S,04700.70955,W,1,07,1.08,708.8,M,-5.6,M,,*4A
$GPGSA,A,3,20,24,06,12,29,05,02,,,,,,2.10,1.08,1.80*0C
$GPGSV,3,1,12,02,65,128,30,05,19,033,39,06,18,142,33,11,54,125,31*7B
$GPGSV,3,2,12,12,54,176,30,15,02,354,20,20,28,065,33,24,57,336,43*72
$GPGSV,3,3,12,25,33,214,32,29,35,264,29,32,00,249,,51,19,282,27*72
$GPGLL,2254.17201,S,04700.70955,W,134908.00,A,A*68
$GPRMC,134909.00,A,2254.16765,S,04700.71309,W,19.984,324.46,221121,,,A*53
$GPVTG,324.46,T,,M,19.984,N,37.010,K,A*32
$GPGGA,134909.00,2254.16765,S,04700.71309,W,1,07,1.08,707.0,M,-5.6,M,,*48
$GPGSA,A,3,20,24,06,12,29,05,02,,,,,,2.10,1.08,1.80*0C
$GPGSV,3,1,12,02,65,128,30,05,19,033,37,06,18,142,33,11,54,125,34*70
$GPGSV,3,2,12,12,54,176,37,15,02,354,20,20,28,065,27,24,57,336,34*70
$GPGSV,3,3,12,25,33,214,27,29,35,264,27,32,00,249,,51,19,282,32*7C
$GPGLL,2254.16765,S,04700.71309,W,134909.00,A,A*6D
$GPRMC,134910.00,A,2254.16285,S,04700.71590,W,19.965,331.28,221121,,,A*55
$GPVTG,331.28,T,,M,19.965,N,36.975,K,A*3A
$GPGGA,134910.00,2254.16285,S,04700.71590,W,1,07,1.08,706.3,M,-5.6,M,,*4F
$GPGSA,A,3,20,24,06,12,29,05,02,,,,,,2.10,1.08,1.80*0C
$GPGSV,3,1,11,02,65,128,29,05,19,033,23,06,18,142,29,11,54,125,30*71
$GPGSV,3,2,11,12,54,176,35,15,02,354,21,20,28,065,28,24,57,336,31*7A
$GPGSV,3,3,11,25,33,214,26,29,35,264,26,32,00,249,*4A
$GPGLL,2254.16285,S,04700.71590,W,134910.00,A,A*68
$GPRMC,134911.00,A,2254.15773,S,04700.71720,W,19.506,343.69,221121,,,A*5B
$GPVTG,343.69,T,,M,19.506,N,36.125,K,A*3E
$GPGGA,134911.00,2254.15773,S,04700.71720,W,1,07,1.08,707.1,M,-5.6,M,,*4B
$GPGSA,A,3,20,24,06,12,29,05,02,,,,,,2.10,1.08,1.80*0C
$GPGSV,3,1,11,02,65,128,28,05,19,033,30,06,18,142,29,11,54,125,25*76
$GPGSV,3,2,11,12,54,176,31,15,02,354,22,20,28,065,27,24,57,336,36*75
$GPGSV,3,3,11,25,33,214,26,29,35,264,27,32,00,249,*4B
$GPGLL,2254.15773,S,04700.71720,W,134911.00,A,A*6F
$GPRMC,134912.00,A,2254.15276,S,04700.71885,W,19.128,341.05,221121,,,A*58
$GPVTG,341.05,T,,M,19.128,N,35.425,K,A*38
$GPGGA,134912.00,2254.15276,S,04700.71885,W,1,07,1.08,707.2,M,-5.6,M,,*4B
$GPGSA,A,3,20,24,06,12,29,05,02,,,,,,2.10,1.08,1.80*0C
$GPGSV,3,1,11,02,65,128,27,05,19,033,39,06,18,142,29,11,54,125,26*73
$GPGSV,3,2,11,12,54,176,34,15,02,354,21,20,28,065,26,24,57,336,38*7C
$GPGSV,3,3,11,25,33,214,26,29,35,264,28,32,00,249,*44
$GPGLL,2254.15276,S,04700.71885,W,134912.00,A,A*6C
$GPRMC,134913.00,A,2254.14812,S,04700.72122,W,18.764,334.61,221121,,,A*58
$GPVTG,334.61,T,,M,18.764,N,34.750,K,A*37
$GPGGA,134913.00,2254.14812,S,04700.72122,W,1,07,1.08,706.3,M,-5.6,M,,*44
$GPGSA,A,3,20,24,06,12,29,05,02,,,,,,2.10,1.08,1.80*0C
$GPGSV,3,1,11,02,65,128,28,05,19,033,37,06,18,142,28,11,54,125,31*75
$GPGSV,3,2,11,12,54,176,39,15,02,354,19,20,28,065,25,24,57,336,41*77
$GPGSV,3,3,11,25,33,214,26,29,35,264,32,32,00,249,*4F
$GPGLL,2254.14812,S,04700.72122,W,134913.00,A,A*63
$GPRMC,134914.00,A,2254.14318,S,04700.72405,W,19.410,334.93,221121,,,A*52
$GPVTG,334.93,T,,M,19.410,N,35.947,K,A*32
$GPGGA,134914.00,2254.14318,S,04700.72405,W,1,07,1.08,703.3,M,-5.6,M,,*47
$GPGSA,A,3,20,24,06,12,29,05,02,,,,,,2.10,1.08,1.80*0C
$GPGSV,3,1,11,02,65,129,30,05,19,033,26,06,18,142,28,11,54,125,31*7D
$GPGSV,3,2,11,12,54,176,42,15,02,354,17,20,28,065,25,24,57,336,39*7A
$GPGSV,3,3,11,25,33,214,37,29,35,264,28,32,00,249,*44
$GPGLL,2254.14318,S,04700.72405,W,134914.00,A,A*65
$GPRMC,134915.00,A,2254.13816,S,04700.72634,W,19.476,336.20,221121,,,A*5B
$GPVTG,336.20,T,,M,19.476,N,36.069,K,A*3E
$GPGGA,134915.00,2254.13816,S,04700.72634,W,1,07,1.08,703.3,M,-5.6,M,,*44
$GPGSA,A,3,20,24,06,12,29,05,02,,,,,,2.10,1.08,1.80*0C
$GPGSV,3,1,11,02,65,129,29,05,19,033,27,06,18,142,32,11,54,125,31*7F
$GPGSV,3,2,11,12,54,176,39,15,02,354,18,20,28,065,28,24,57,336,34*79
$GPGSV,3,3,11,25,33,214,30,29,35,264,28,32,00,249,*43
$GPGLL,2254.13816,S,04700.72634,W,134915.00,A,A*66
$GPRMC,134916.00,A,2254.13366,S,04700.72918,W,18.877,330.85,221121,,,A*50
$GPVTG,330.85,T,,M,18.877,N,34.961,K,A*38
$GPGGA,134916.00,2254.13366,S,04700.72918,W,1,07,1.08,702.4,M,-5.6,M,,*4C
$GPGSA,A,3,20,24,06,12,29,05,02,,,,,,2.10,1.08,1.80*0C
$GPGSV,3,1,11,02,65,129,29,05,19,033,37,06,18,142,32,11,54,125,29*77
$GPGSV,3,2,11,12,54,176,28,15,02,354,20,20,28,065,26,24,57,336,36*7E
$GPGSV,3,3,11,25,33,214,23,29,35,264,28,32,00,249,*41
$GPGLL,2254.13366,S,04700.72918,W,134916.00,A,A*68
$GPRMC,134917.00,A,2254.12916,S,04700.73108,W,17.239,338.76,221121,,,A*5E
$GPVTG,338.76,T,,M,17.239,N,31.927,K,A*34
$GPGGA,134917.00,2254.12916,S,04700.73108,W,1,07,1.08,701.9,M,-5.6,M,,*47
$GPGSA,A,3,20,24,06,12,29,05,02,,,,,,2.10,1.08,1.80*0C
$GPGSV,3,1,11,02,65,129,29,05,19,034,28,06,18,142,32,11,54,125,29*7E
$GPGSV,3,2,11,12,54,176,37,15,02,354,21,20,28,065,25,24,57,336,38*7C
$GPGSV,3,3,11,25,33,214,23,29,35,264,33,32,00,249,*4B
$GPGLL,2254.12916,S,04700.73108,W,134917.00,A,A*6D
$GPRMC,134918.00,A,2254.12517,S,04700.73253,W,15.814,339.62,221121,,,A*52
$GPVTG,339.62,T,,M,15.814,N,29.288,K,A*30
$GPGGA,134918.00,2254.12517,S,04700.73253,W,1,07,1.08,702.2,M,-5.6,M,,*40
$GPGSA,A,3,20,24,06,12,29,05,02,,,,,,2.10,1.08,1.80*0C
$GPGSV,3,1,11,02,65,129,28,05,19,034,27,06,18,142,27,11,54,125,29*74
$GPGSV,3,2,11,12,54,176,34,15,02,354,21,20,28,065,26,24,57,336,40*73
$GPGSV,3,3,11,25,33,214,31,29,35,264,28,32,00,249,*42
$GPGLL,2254.12517,S,04700.73253,W,134918.00,A,A*62
$GPRMC,134919.00,A,2254.12123,S,04700.73523,W,16.425,331.22,221121,,,A*51
$GPVTG,331.22,T,,M,16.425,N,30.420,K,A*3D
$GPGGA,134919.00,2254.12123,S,04700.73523,W,1,07,1.08,699.6,M,-5.6,M,,*45
$GPGSA,A,3,20,24,06,12,29,05,02,,,,,,2.10,1.08,1.80*0C
$GPGSV,3,1,11,02,65,129,28,05,19,034,32,06,18,142,27,11,54,125,30*78
$GPGSV,3,2,11,12,54,176,32,15,02,354,19,20,28,065,26,24,57,336,36*7F
$GPGSV,3,3,11,25,33,214,31,29,35,264,28,32,00,249,*42
$GPGLL,2254.12123,S,04700.73523,W,134919.00,A,A*60
$GPRMC,134920.00,A,2254.11786,S,04700.73740,W,13.404,331.79,221121,,,A*5E
$GPVTG,331.79,T,,M,13.404,N,24.824,K,A*38
$GPGGA,134920.00,2254.11786,S,04700.73740,W,1,07,1.08,697.5,M,-5.6,M,,*4F
$GPGSA,A,3,20,24,06,12,29,05,02,,,,,,2.10,1.08,1.80*0C
$GPGSV,3,1,11,02,65,129,28,05,19,034,27,06,18,142,24,11,54,125,30*7F
$GPGSV,3,2,11,12,54,176,33,15,02,354,16,20,28,065,30,24,57,336,38*78
$GPGSV,3,3,11,25,33,214,26,29,35,264,28,32,00,249,*44
$GPGLL,2254.11786,S,04700.73740,W,134920.00,A,A*67
$GPRMC,134921.00,A,2254.11465,S,04700.73944,W,13.160,332.90,221121,,,A*58
$GPVTG,332.90,T,,M,13.160,N,24.373,K,A*32
$GPGGA,134921.00,2254.11465,S,04700.73944,W,1,07,1.08,695.0,M,-5.6,M,,*4D
$GPGSA,A,3,20,24,06,12,29,05,02,,,,,,2.10,1.08,1.80*0C
$GPGSV,3,1,11,02,65,129,20,05,19,034,32,06,18,142,23,11,54,125,29*7C
$GPGSV,3,2,11,12,54,176,34,15,02,354,17,20,28,065,23,24,57,336,39*7D
$GPGSV,3,3,11,25,33,214,27,29,35,264,27,32,00,249,*4A
$GPGLL,2254.11465,S,04700.73944,W,134921.00,A,A*62
$GPRMC,134922.00,A,2254.11155,S,04700.74074,W,11.522,337.09,221121,,,A*55
$GPVTG,337.09,T,,M,11.522,N,21.339,K,A*3C
$GPGGA,134922.00,2254.11155,S,04700.74074,W,1,07,1.08,693.4,M,-5.6,M,,*47
$GPGSA,A,3,20,24,06,12,29,05,02,,,,,,2.10,1.08,1.80*0C
$GPGSV,3,1,11,02,65,129,23,05,19,034,28,06,18,142,21,11,54,125,33*7D
$GPGSV,3,2,11,12,54,176,37,15,02,354,19,20,28,065,24,24,57,336,39*77
$GPGSV,3,3,11,25,33,214,26,29,35,264,28,32,00,249,*44
$GPGLL,2254.11155,S,04700.74074,W,134922.00,A,A*6A
$GPRMC,134923.00,A,2254.10892,S,04700.74214,W,10.263,335.49,221121,,,A*56
$GPVTG,335.49,T,,M,10.263,N,19.007,K,A*3C
$GPGGA,134923.00,2254.10892,S,04700.74214,W,1,07,1.08,692.1,M,-5.6,M,,*45
$GPGSA,A,3,20,24,06,12,29,05,02,,,,,,2.10,1.08,1.80*0C
$GPGSV,3,1,11,02,65,129,26,05,19,034,32,06,18,142,21,11,53,126,30*74
$GPGSV,3,2,11,12,54,176,33,15,02,354,19,20,28,065,26,24,57,336,37*7F
$GPGSV,3,3,11,25,33,214,26,29,35,264,29,32,00,249,*45
$GPGLL,2254.10892,S,04700.74214,W,134923.00,A,A*6C
$GPRMC,134924.00,A,2254.10661,S,04700.74290,W,8.335,342.78,221121,,,A*66
$GPVTG,342.78,T,,M,8.335,N,15.436,K,A*0F
$GPGGA,134924.00,2254.10661,S,04700.74290,W,1,07,1.08,691.1,M,-5.6,M,,*4F
$GPGSA,A,3,20,24,06,12,29,05,02,,,,,,2.10,1.08,1.80*0C
$GPGSV,3,1,11,02,65,129,35,05,19,034,36,06,18,142,21,11,53,126,23*70
$GPGSV,3,2,11,12,55,175,32,15,02,354,18,20,28,065,26,24,57,336,35*7F
$GPGSV,3,3,11,25,33,214,24,29,35,264,34,32,00,249,*4B
$GPGLL,2254.10661,S,04700.74290,W,134924.00,A,A*65
$GPRMC,134925.00,A,2254.10476,S,04700.74289,W,6.733,356.50,221121,,,A*68
$GPVTG,356.50,T,,M,6.733,N,12.469,K,A*01
$GPGGA,134925.00,2254.10476,S,04700.74289,W,1,07,1.08,689.3,M,-5.6,M,,*49
$GPGSA,A,3,20,24,06,12,29,05,02,,,,,,2.10,1.08,1.80*0C
$GPGSV,3,1,11,02,65,129,31,05,19,034,28,06,18,142,20,11,53,126,34*7C
$GPGSV,3,2,11,12,55,175,32,15,02,354,16,20,28,065,27,24,57,336,26*72
$GPGSV,3,3,11,25,33,214,23,29,35,264,38,32,00,249,*40
$GPGLL,2254.10476,S,04700.74289,W,134925.00,A,A*68
$GPRMC,134926.00,A,2254.10334,S,04700.74225,W,5.833,18.19,221121,,,A*54
$GPVTG,18.19,T,,M,5.833,N,10.803,K,A*3B
$GPGGA,134926.00,2254.10334,S,04700.74225,W,1,07,1.08,689.3,M,-5.6,M,,*4D
$GPGSA,A,3,20,24,06,12,29,05,02,,,,,,2.10,1.08,1.80*0C
$GPGSV,3,1,11,02,65,129,31,05,19,034,26,06,18,142,20,11,53,126,31*77
$GPGSV,3,2,11,12,55,175,28,15,02,354,16,20,28,065,41,24,57,336,40*79
$GPGSV,3,3,11,25,33,214,24,29,35,264,40,32,00,249,*48
$GPGLL,2254.10334,S,04700.74225,W,134926.00,A,A*6C
$GPRMC,134927.00,A,2254.10235,S,04700.74116,W,5.105,29.85,221121,,,A*5D
$GPVTG,29.85,T,,M,5.105,N,9.454,K,A*06
$GPGGA,134927.00,2254.10235,S,04700.74116,W,1,07,1.08,689.1,M,-5.6,M,,*4D
$GPGSA,A,3,20,24,06,12,29,05,02,,,,,,2.10,1.08,1.80*0C
$GPGSV,3,1,11,02,65,129,30,05,19,034,25,06,18,142,19,11,53,126,30*7E
$GPGSV,3,2,11,12,55,175,26,15,02,354,15,20,28,065,33,24,57,336,33*75
$GPGSV,3,3,11,25,33,214,30,29,35,264,31,32,00,249,*4B
$GPGLL,2254.10235,S,04700.74116,W,134927.00,A,A*6E
$GPRMC,134928.00,A,2254.10128,S,04700.73978,W,5.385,35.19,221121,,,A*58
$GPVTG,35.19,T,,M,5.385,N,9.974,K,A*0B
$GPGGA,134928.00,2254.10128,S,04700.73978,W,1,03,1.88,691.0,M,-5.6,M,,*4E
$GPGSA,A,2,20,24,06,,,,,,,,,,2.13,1.88,1.00*01
$GPGSV,3,1,11,02,65,129,04,05,19,034,07,06,18,142,19,11,53,126,22*7A
$GPGSV,3,2,11,12,55,175,08,15,02,354,14,20,28,065,12,24,57,336,16*7C
$GPGSV,3,3,11,25,33,214,21,29,35,264,05,32,00,249,*4C
$GPGLL,2254.10128,S,04700.73978,W,134928.00,A,A*69
$GPRMC,134929.00,A,2254.10031,S,04700.73914,W,5.738,,221121,,,A*78
$GPVTG,,T,,M,5.738,N,10.628,K,A*17
$GPGGA,134929.00,2254.10031,S,04700.73914,W,1,04,2.60,690.4,M,-5.6,M,,*4B
$GPGSA,A,3,20,24,06,05,,,,,,,,,5.25,2.60,4.56*04
$GPGSV,3,1,11,02,65,129,06,05,19,034,19,06,18,142,19,11,53,126,20*75
$GPGSV,3,2,11,12,55,175,08,15,02,354,16,20,28,065,13,24,57,336,15*7C
$GPGSV,3,3,11,25,33,214,20,29,35,264,05,32,00,249,*4D
$GPGLL,2254.10031,S,04700.73914,W,134929.00,A,A*6B
$GPRMC,134930.00,A,2254.09928,S,04700.73787,W,6.065,,221121,,,A*71
$GPVTG,,T,,M,6.065,N,11.232,K,A*15
$GPGGA,134930.00,2254.09928,S,04700.73787,W,1,05,2.46,690.4,M,-5.6,M,,*4B
$GPGSA,A,3,20,24,06,12,05,,,,,,,,4.51,2.46,3.78*0A
$GPGSV,3,1,11,02,65,129,07,05,19,034,19,06,18,142,17,11,53,126,18*71
$GPGSV,3,2,11,12,55,175,11,15,02,354,15,20,28,065,13,24,57,336,14*76
$GPGSV,3,3,11,25,33,214,18,29,35,264,07,32,00,249,*44
$GPGLL,2254.09928,S,04700.73787,W,134930.00,A,A*6E
$GPRMC,134931.00,A,2254.09829,S,04700.73630,W,6.320,48.82,221121,,,A*57
$GPVTG,48.82,T,,M,6.320,N,11.705,K,A*3E
$GPGGA,134931.00,2254.09829,S,04700.73630,W,1,04,2.60,691.0,M,-5.6,M,,*47
$GPGSA,A,3,20,24,06,05,,,,,,,,,5.25,2.60,4.56*04
$GPGSV,3,1,11,02,65,129,,05,19,034,17,06,18,142,16,11,53,126,15*74
$GPGSV,3,2,11,12,55,175,,15,02,354,16,20,28,065,13,24,57,336,13*72
$GPGSV,3,3,11,25,33,214,16,29,35,264,,32,00,249,*4D
$GPGLL,2254.09829,S,04700.73630,W,134931.00,A,A*62
$GPRMC,134932.00,A,2254.09680,S,04700.73441,W,7.500,50.93,221121,,,A*51
$GPVTG,50.93,T,,M,7.500,N,13.890,K,A*33
$GPGGA,134932.00,2254.09680,S,04700.73441,W,1,04,2.60,692.6,M,-5.6,M,,*48
$GPGSA,A,3,20,24,06,05,,,,,,,,,5.25,2.60,4.56*04
$GPGSV,3,1,11,02,65,129,,05,19,034,14,06,18,142,14,11,53,126,13*73
$GPGSV,3,2,11,12,55,175,,15,02,354,14,20,28,065,14,24,57,336,13*77
$GPGSV,3,3,11,25,33,214,14,29,35,264,,32,00,249,*4F
$GPGLL,2254.09680,S,04700.73441,W,134932.00,A,A*68
$GPRMC,134933.00,A,2254.09377,S,04700.73197,W,10.698,42.00,221121,,,A*6E
$GPVTG,42.00,T,,M,10.698,N,19.814,K,A*08
$GPGGA,134933.00,2254.09377,S,04700.73197,W,1,04,2.60,696.1,M,-5.6,M,,*49
$GPGSA,A,3,20,24,06,05,,,,,,,,,5.25,2.60,4.56*04
$GPGSV,3,1,11,02,65,129,,05,19,034,13,06,18,142,10,11,53,126,12*71
$GPGSV,3,2,11,12,55,175,,15,02,354,12,20,28,065,14,24,57,336,13*71
$GPGSV,3,3,11,25,33,214,12,29,35,264,,32,00,249,*49
$GPGLL,2254.09377,S,04700.73197,W,134933.00,A,A*6A
$GPRMC,134934.00,V,,,,,,,221121,,,N*76
$GPVTG,,,,,,,,,N*30
$GPGGA,134934.00,,,,,0,00,99.99,,,,,,*6E
$GPGSA,A,1,,,,,,,,,,,,,99.99,99.99,99.99*30
$GPGSV,3,1,11,02,65,129,,05,19,034,13,06,18,142,09,11,53,126,12*79
$GPGSV,3,2,11,12,55,175,,15,02,354,12,20,28,065,14,24,57,336,14*76
$GPGSV,3,3,11,25,33,214,,29,35,264,,32,00,249,*4A
$GPGLL,,,,,134934.00,V,N*42
$GPRMC,134935.00,V,,,,,,,221121,,,N*77
$GPVTG,,,,,,,,,N*30
$GPGGA,134935.00,,,,,0,00,99.99,,,,,,*6F
$GPGSA,A,1,,,,,,,,,,,,,99.99,99.99,99.99*30
$GPGSV,3,1,11,02,65,129,,05,19,034,13,06,18,142,09,11,53,126,12*79
$GPGSV,3,2,11,12,55,175,,15,02,354,12,20,28,065,14,24,57,336,14*76
$GPGSV,3,3,11,25,33,214,,29,35,264,,32,00,249,*4A
$GPGLL,,,,,134935.00,V,N*43
$GPRMC,134936.00,V,,,,,,,221121,,,N*74
$GPVTG,,,,,,,,,N*30
$GPGGA,134936.00,,,,,0,00,99.99,,,,,,*6C
$GPGSA,A,1,,,,,,,,,,,,,99.99,99.99,99.99*30
$GPGSV,3,1,11,02,65,129,,05,19,034,13,06,18,142,10,11,53,126,12*71
$GPGSV,3,2,11,12,55,175,,15,02,354,12,20,28,065,14,24,57,337,14*77
$GPGSV,3,3,11,25,33,214,,29,35,264,,32,00,249,*4A
$GPGLL,,,,,134936.00,V,N*40
$GPRMC,134937.00,V,,,,,,,221121,,,N*75
$GPVTG,,,,,,,,,N*30
$GPGGA,134937.00,,,,,0,00,99.99,,,,,,*6D
$GPGSA,A,1,,,,,,,,,,,,,99.99,99.99,99.99*30
$GPGSV,3,1,11,02,65,129,,05,19,034,13,06,18,142,,11,53,126,12*70
$GPGSV,3,2,11,12,55,175,,15,02,354,12,20,28,065,14,24,57,337,14*77
$GPGSV,3,3,11,25,33,214,19,29,35,264,,32,00,249,*42
$GPGLL,,,,,134937.00,V,N*41
$GPRMC,134938.00,V,,,,,,,221121,,,N*7A
$GPVTG,,,,,,,,,N*30
$GPGGA,134938.00,,,,,0,00,99.99,,,,,,*62
$GPGSA,A,1,,,,,,,,,,,,,99.99,99.99,99.99*30
$GPGSV,3,1,11,02,65,129,,05,19,034,08,06,18,142,,11,53,126,07*7E
$GPGSV,3,2,11,12,55,175,,15,02,354,08,20,28,065,08,24,57,337,07*73
$GPGSV,3,3,11,25,33,214,,29,35,264,,32,00,249,*4A
$GPGLL,,,,,134938.00,V,N*4E
$GPRMC,134939.00,V,,,,,,,221121,,,N*7B
$GPVTG,,,,,,,,,N*30
$GPGGA,134939.00,,,,,0,00,99.99,,,,,,*63
$GPGSA,A,1,,,,,,,,,,,,,99.99,99.99,99.99*30
$GPGSV,3,1,11,02,65,129,,05,19,034,08,06,18,142,,11,53,126,07*7E
$GPGSV,3,2,11,12,55,175,,15,02,354,08,20,28,065,08,24,57,337,07*73
$GPGSV,3,3,11,25,33,214,,29,35,264,20,32,00,249,*48
$GPGLL,,,,,134939.00,V,N*4F
$GPRMC,134940.00,V,,,,,,,221121,,,N*75
$GPVTG,,,,,,,,,N*30
$GPGGA,134940.00,,,,,0,00,99.99,,,,,,*6D
$GPGSA,A,1,,,,,,,,,,,,,99.99,99.99,99.99*30
$GPGSV,3,1,11,02,65,129,,05,19,034,08,06,18,142,11,11,53,126,07*7E
$GPGSV,3,2,11,12,55,175,,15,02,354,08,20,28,065,08,24,57,337,07*73
$GPGSV,3,3,11,25,33,214,,29,35,264,,32,00,249,*4A
$GPGLL,,,,,134940.00,V,N*41
$GPRMC,134941.00,V,,,,,,,221121,,,N*74
$GPVTG,,,,,,,,,N*30
$GPGGA,134941.00,,,,,0,00,99.99,,,,,,*6C
$GPGSA,A,1,,,,,,,,,,,,,99.99,99.99,99.99*30
$GPGSV,3,1,11,02,65,129,,05,19,034,08,06,18,142,11,11,53,126,07*7E
$GPGSV,3,2,11,12,55,175,,15,02,354,08,20,28,065,08,24,57,337,07*73
$GPGSV,3,3,11,25,33,214,,29,35,263,,32,00,249,*4D
$GPGLL,,,,,134941.00,V,N*40
$GPRMC,134942.00,V,,,,,,,221121,,,N*77
$GPVTG,,,,,,,,,N*30
$GPGGA,134942.00,,,,,0,00,99.99,,,,,,*6F
$GPGSA,A,1,,,,,,,,,,,,,99.99,99.99,99.99*30
$GPGSV,3,1,11,02,65,129,,05,19,034,08,06,18,142,10,11,53,126,07*7F
$GPGSV,3,2,11,12,55,175,,15,02,354,08,20,28,065,08,24,57,337,07*73
$GPGSV,3,3,11,25,33,214,,29,35,263,,32,00,249,*4D
$GPGLL,,,,,134942.00,V,N*43
$GPRMC,134943.00,V,,,,,,,221121,,,N*76
$GPVTG,,,,,,,,,N*30
$GPGGA,134943.00,,,,,0,00,99.99,,,,,,*6E
$GPGSA,A,1,,,,,,,,,,,,,99.99,99.99,99.99*30
$GPGSV,3,1,11,02,65,129,,05,19,034,08,06,18,142,,11,53,126,07*7E
$GPGSV,3,2,11,12,55,175,,15,02,354,08,20,28,065,08,24,57,337,07*73
$GPGSV,3,3,11,25,33,214,,29,35,263,,32,00,249,*4D
$GPGLL,,,,,134943.00,V,N*42
$GPRMC,134944.00,V,,,,,,,221121,,,N*71
$GPVTG,,,,,,,,,N*30
$GPGGA,134944.00,,,,,0,00,99.99,,,,,,*69
$GPGSA,A,1,,,,,,,,,,,,,99.99,99.99,99.99*30
$GPGSV,3,1,11,02,65,129,,05,19,034,09,06,18,142,,11,53,126,07*7F
$GPGSV,3,2,11,12,55,175,,15,02,354,08,20,28,065,08,24,57,337,07*73
$GPGSV,3,3,11,25,33,214,19,29,35,263,,32,00,250,*4D
$GPGLL,,,,,134944.00,V,N*45
$GPRMC,134945.00,V,,,,,,,221121,,,N*70
$GPVTG,,,,,,,,,N*30
$GPGGA,134945.00,,,,,0,00,99.99,,,,,,*68
$GPGSA,A,1,,,,,,,,,,,,,99.99,99.99,99.99*30
$GPGSV,3,1,11,02,65,129,,05,19,034,09,06,18,142,,11,53,126,07*7F
$GPGSV,3,2,11,12,55,175,,15,02,354,09,20,28,065,08,24,57,337,07*72
$GPGSV,3,3,11,25,33,214,18,29,35,263,,32,00,250,*4C
$GPGLL,,,,,134945.00,V,N*44
$GPRMC,134946.00,V,,,,,,,221121,,,N*73
$GPVTG,,,,,,,,,N*30
$GPGGA,134946.00,,,,,0,00,99.99,,,,,,*6B
$GPGSA,A,1,,,,,,,,,,,,,99.99,99.99,99.99*30
$GPGSV,3,1,11,02,65,129,,05,19,034,09,06,18,142,,11,53,126,07*7F
$GPGSV,3,2,11,12,55,175,19,15,02,354,,20,28,065,,24,57,337,07*7B
$GPGSV,3,3,11,25,33,214,15,29,35,263,,32,00,250,*41
$GPGLL,,,,,134946.00,V,N*47
$GPRMC,134947.00,V,,,,,,,221121,,,N*72
$GPVTG,,,,,,,,,N*30
$GPGGA,134947.00,,,,,0,00,99.99,,,,,,*6A
$GPGSA,A,1,,,,,,,,,,,,,99.99,99.99,99.99*30
$GPGSV,3,1,11,02,65,129,15,05,19,034,09,06,18,142,,11,53,126,07*7B
$GPGSV,3,2,11,12,55,175,17,15,02,354,,20,28,065,,24,57,337,07*75
$GPGSV,3,3,11,25,33,214,,29,35,263,,32,00,250,18*4C
$GPGLL,,,,,134947.00,V,N*46
$GPRMC,134948.00,V,,,,,,,221121,,,N*7D
$GPVTG,,,,,,,,,N*30
$GPGGA,134948.00,,,,,0,00,99.99,,,,,,*65
$GPGSA,A,1,,,,,,,,,,,,,99.99,99.99,99.99*30
$GPGSV,3,1,11,02,65,129,13,05,19,034,09,06,18,142,15,11,53,126,07*79
$GPGSV,3,2,11,12,55,175,14,15,02,354,,20,28,065,,24,57,337,07*76
$GPGSV,3,3,11,25,33,214,,29,35,263,20,32,00,250,16*40
$GPGLL,,,,,134948.00,V,N*49
$GPRMC,134949.00,V,,,,,,,221121,,,N*7C
$GPVTG,,,,,,,,,N*30
$GPGGA,134949.00,,,,,0,00,99.99,,,,,,*64
$GPGSA,A,1,,,,,,,,,,,,,99.99,99.99,99.99*30
$GPGSV,3,1,11,02,65,129,11,05,19,034,,06,18,142,14,11,53,126,07*73
$GPGSV,3,2,11,12,55,175,23,15,02,354,,20,28,065,13,24,57,337,07*70
$GPGSV,3,3,11,25,33,214,,29,35,263,17,32,00,250,13*41
$GPGLL,,,,,134949.00,V,N*48
$GPRMC,134950.00,V,,,,,,,221121,,,N*74
$GPVTG,,,,,,,,,N*30
$GPGGA,134950.00,,,,,0,00,99.99,,,,,,*6C
$GPGSA,A,1,,,,,,,,,,,,,99.99,99.99,99.99*30
$GPGSV,3,1,11,02,65,129,,05,19,034,,06,18,142,13,11,53,126,08*7B
$GPGSV,3,2,11,12,55,175,,15,02,354,19,20,28,065,11,24,57,337,07*7B
$GPGSV,3,3,11,25,33,214,19,29,35,263,14,32,00,250,11*48
$GPGLL,,,,,134950.00,V,N*40
$GPRMC,134951.00,V,,,,,,,221121,,,N*75
$GPVTG,,,,,,,,,N*30
$GPGGA,134951.00,,,,,0,00,99.99,,,,,,*6D
$GPGSA,A,1,,,,,,,,,,,,,99.99,99.99,99.99*30
$GPGSV,3,1,11,02,65,129,,05,19,034,,06,18,142,13,11,53,126,08*7B
$GPGSV,3,2,11,12,55,175,19,15,02,354,14,20,28,065,27,24,57,337,07*7B
$GPGSV,3,3,11,25,33,214,17,29,35,263,,32,00,250,*43
$GPGLL,,,,,134951.00,V,N*41
$GPRMC,134952.00,V,,,,,,,221121,,,N*76
$GPVTG,,,,,,,,,N*30
$GPGGA,134952.00,,,,,0,00,99.99,,,,,,*6E
$GPGSA,A,1,,,,,,,,,,,,,99.99,99.99,99.99*30
$GPGSV,3,1,11,02,65,129,14,05,19,034,15,06,18,142,12,11,53,126,*73
$GPGSV,3,2,11,12,55,175,24,15,02,354,14,20,28,065,,24,57,337,*77
$GPGSV,3,3,11,25,33,214,15,29,35,263,,32,00,250,*41
$GPGLL,,,,,134952.00,V,N*42
$GPRMC,134953.00,V,,,,,,,221121,,,N*77
$GPVTG,,,,,,,,,N*30
$GPGGA,134953.00,,,,,0,00,99.99,,,,,,*6F
$GPGSA,A,1,,,,,,,,,,,,,99.99,99.99,99.99*30
$GPGSV,3,1,11,02,65,129,12,05,19,034,12,06,18,142,,11,53,126,*71
$GPGSV,3,2,11,12,55,175,19,15,02,354,11,20,28,065,,24,57,337,*7C
$GPGSV,3,3,11,25,33,214,,29,35,263,18,32,00,250,18*45
$GPGLL,,,,,134953.00,V,N*43
$GPRMC,134954.00,V,,,,,,,221121,,,N*70
$GPVTG,,,,,,,,,N*30
$GPGGA,134954.00,,,,,0,00,99.99,,,,,,*68
$GPGSA,A,1,,,,,,,,,,,,,99.99,99.99,99.99*30
$GPGSV,3,1,11,02,65,129,,05,19,034,,06,18,142,,11,53,126,*71
$GPGSV,3,2,11,12,55,175,,15,02,354,10,20,28,065,,24,57,337,*75
$GPGSV,3,3,11,25,33,214,,29,35,263,16,32,00,250,15*46
$GPGLL,,,,,134954.00,V,N*44
$GPRMC,134955.00,V,,,,,,,221121,,,N*71
$GPVTG,,,,,,,,,N*30
$GPGGA,134955.00,,,,,0,00,99.99,,,,,,*69
$GPGSA,A,1,,,,,,,,,,,,,99.99,99.99,99.99*30
$GPGSV,3,1,11,02,65,129,,05,19,034,,06,18,142,,11,53,126,*71
$GPGSV,3,2,11,12,55,175,,15,02,354,11,20,28,065,,24,57,337,12*77
$GPGSV,3,3,11,25,33,214,19,29,35,263,,32,00,250,*4D
$GPGLL,,,,,134955.00,V,N*45
$GPRMC,134956.00,V,,,,,,,221121,,,N*72
$GPVTG,,,,,,,,,N*30
$GPGGA,134956.00,,,,,0,00,99.99,,,,,,*6A
$GPGSA,A,1,,,,,,,,,,,,,99.99,99.99,99.99*30
$GPGSV,3,1,11,02,65,129,,05,19,034,,06,18,142,,11,53,126,*71
$GPGSV,3,2,11,12,55,175,,15,02,354,10,20,28,065,,24,57,337,10*74
$GPGSV,3,3,11,25,33,214,17,29,35,263,,32,00,250,*43
$GPGLL,,,,,134956.00,V,N*46
$GPRMC,134957.00,V,,,,,,,221121,,,N*73
$GPVTG,,,,,,,,,N*30
$GPGGA,134957.00,,,,,0,00,99.99,,,,,,*6B
$GPGSA,A,1,,,,,,,,,,,,,99.99,99.99,99.99*30
$GPGSV,3,1,11,02,65,129,21,05,19,034,,06,18,142,14,11,53,126,*77
$GPGSV,3,2,11,12,55,175,,15,02,354,,20,28,065,,24,57,337,08*7C
$GPGSV,3,3,11,25,33,214,13,29,35,263,,32,00,250,*47
$GPGLL,,,,,134957.00,V,N*47
$GPRMC,134958.00,V,,,,,,,221121,,,N*7C
$GPVTG,,,,,,,,,N*30
$GPGGA,134958.00,,,,,0,00,99.99,,,,,,*64
$GPGSA,A,1,,,,,,,,,,,,,99.99,99.99,99.99*30
$GPGSV,3,1,11,02,65,129,18,05,19,034,,06,18,142,13,11,53,126,*7A
$GPGSV,3,2,11,12,55,175,18,15,02,354,,20,28,065,,24,57,337,08*75
$GPGSV,3,3,11,25,33,214,09,29,35,263,,32,00,250,22*4C
$GPGLL,,,,,134958.00,V,N*48
$GPRMC,134959.00,V,,,,,,,221121,,,N*7D
$GPVTG,,,,,,,,,N*30
$GPGGA,134959.00,,,,,0,00,99.99,,,,,,*65
$GPGSA,A,1,,,,,,,,,,,,,99.99,99.99,99.99*30
$GPGSV,3,1,11,02,65,129,14,05,19,034,13,06,18,142,12,11,53,126,*75
$GPGSV,3,2,11,12,55,175,16,15,02,354,,20,28,065,,24,57,337,08*7B
$GPGSV,3,3,11,25,33,214,,29,35,263,20,32,00,250,19*4F
$GPGLL,,,,,134959.00,V,N*49
$GPRMC,135000.00,V,,,,,,,221121,,,N*79
$GPVTG,,,,,,,,,N*30
$GPGGA,135000.00,,,,,0,00,99.99,,,,,,*61
$GPGSA,A,1,,,,,,,,,,,,,99.99,99.99,99.99*30
$GPGSV,3,1,11,02,65,129,,05,19,034,13,06,18,142,11,11,53,126,*73
$GPGSV,3,2,11,12,55,175,,15,02,354,,20,28,065,,24,57,337,08*7C
$GPGSV,3,3,11,25,33,214,,29,35,263,17,32,00,250,16*44
$GPGLL,,,,,135000.00,V,N*4D
$GPRMC,135001.00,V,,,,,,,221121,,,N*78
$GPVTG,,,,,,,,,N*30
$GPGGA,135001.00,,,,,0,00,99.99,,,,,,*60
$GPGSA,A,1,,,,,,,,,,,,,99.99,99.99,99.99*30
$GPGSV,3,1,11,02,65,129,,05,19,034,,06,18,142,10,11,53,126,*70
$GPGSV,3,2,11,12,55,175,,15,02,354,22,20,28,065,21,24,57,337,09*7E
$GPGSV,3,3,11,25,33,214,,29,35,263,,32,00,250,11*45
$GPGLL,,,,,135001.00,V,N*4C
$GPRMC,135002.00,V,,,,,,,221121,,,N*7B
$GPVTG,,,,,,,,,N*30
$GPGGA,135002.00,,,,,0,00,99.99,,,,,,*63
$GPGSA,A,1,,,,,,,,,,,,,99.99,99.99,99.99*30
$GPGSV,3,1,11,02,65,129,22,05,19,034,,06,18,142,12,11,53,126,*72
$GPGSV,3,2,11,12,55,175,,15,02,354,,20,28,065,,24,57,337,11*74
$GPGSV,3,3,11,25,33,214,,29,35,263,,32,00,250,11*45
$GPGLL,,,,,135002.00,V,N*4F
$GPRMC,135003.00,V,,,,,,,221121,,,N*7A
$GPVTG,,,,,,,,,N*30
$GPGGA,135003.00,,,,,0,00,99.99,,,,,,*62
$GPGSA,A,1,,,,,,,,,,,,,99.99,99.99,99.99*30
$GPGSV,3,1,11,02,65,129,18,05,19,034,,06,18,142,11,11,53,126,*78
$GPGSV,3,2,11,12,55,175,,15,02,354,,20,28,065,,24,57,337,11*74
$GPGSV,3,3,11,25,33,214,17,29,35,263,,32,00,250,10*42
$GPGLL,,,,,135003.00,V,N*4E
$GPRMC,135004.00,V,,,,,,,221121,,,N*7D
$GPVTG,,,,,,,,,N*30
$GPGGA,135004.00,,,,,0,00,99.99,,,,,,*65
$GPGSA,A,1,,,,,,,,,,,,,99.99,99.99,99.99*30
$GPGSV,3,1,11,02,65,129,12,05,19,034,,06,18,142,10,11,53,126,*73
$GPGSV,3,2,11,12,55,175,,15,02,354,,20,28,065,,24,57,337,09*7D
$GPGSV,3,3,11,25,33,214,14,29,35,263,,32,00,250,11*40
$GPGLL,,,,,135004.00,V,N*49
$GPRMC,135005.00,V,,,,,,,221121,,,N*7C
$GPVTG,,,,,,,,,N*30
$GPGGA,135005.00,,,,,0,00,99.99,,,,,,*64
$GPGSA,A,1,,,,,,,,,,,,,99.99,99.99,99.99*30
$GPGSV,3,1,11,02,65,129,08,05,19,034,,06,18,142,08,11,53,126,*71
$GPGSV,3,2,11,12,55,175,,15,02,354,,20,28,065,,24,57,337,*74
$GPGSV,3,3,11,25,33,214,09,29,35,263,,32,00,250,09*45
$GPGLL,,,,,135005.00,V,N*48
$GPRMC,135006.00,V,,,,,,,221121,,,N*7F
$GPVTG,,,,,,,,,N*30
$GPGGA,135006.00,,,,,0,00,99.99,,,,,,*67
$GPGSA,A,1,,,,,,,,,,,,,99.99,99.99,99.99*30
$GPGSV,3,1,11,02,65,129,,05,19,034,,06,18,142,08,11,53,126,*79
$GPGSV,3,2,11,12,55,175,,15,02,354,,20,28,065,,24,57,337,*74
$GPGSV,3,3,11,25,33,214,08,29,35,263,,32,00,250,09*44
$GPGLL,,,,,135006.00,V,N*4B
$GPRMC,135007.00,V,,,,,,,221121,,,N*7E
$GPVTG,,,,,,,,,N*30
$GPGGA,135007.00,,,,,0,00,99.99,,,,,,*66
$GPGSA,A,1,,,,,,,,,,,,,99.99,99.99,99.99*30
$GPGSV,3,1,11,02,65,129,,05,19,034,,06,18,142,,11,53,126,*71
$GPGSV,3,2,11,12,55,175,,15,02,354,,20,28,065,,24,57,337,*74
$GPGSV,3,3,11,25,33,214,08,29,35,263,,32,00,250,*4D
$GPGLL,,,,,135007.00,V,N*4A
$GPRMC,135008.00,V,,,,,,,221121,,,N*71
$GPVTG,,,,,,,,,N*30
$GPGGA,135008.00,,,,,0,00,99.99,,,,,,*69
$GPGSA,A,1,,,,,,,,,,,,,99.99,99.99,99.99*30
$GPGSV,3,1,11,02,65,129,,05,19,034,,06,18,142,,11,53,126,*71
$GPGSV,3,2,11,12,55,175,,15,02,354,,20,28,065,,24,57,337,*74
$GPGSV,3,3,11,25,33,214,10,29,35,263,,32,00,250,*44
$GPGLL,,,,,135008.00,V,N*45
$GPRMC,135009.00,V,,,,,,,221121,,,N*70
$GPVTG,,,,,,,,,N*30
$GPGGA,135009.00,,,,,0,00,99.99,,,,,,*68
$GPGSA,A,1,,,,,,,,,,,,,99.99,99.99,99.99*30
$GPGSV,3,1,11,02,65,129,,05,19,034,,06,18,142,,11,53,126,*71
$GPGSV,3,2,11,12,55,175,,15,02,354,,20,28,065,,24,57,337,*74
$GPGSV,3,3,11,25,33,214,10,29,35,263,,32,00,250,*44
$GPGLL,,,,,135009.00,V,N*44
$GPRMC,135010.00,V,,,,,,,221121,,,N*78
$GPVTG,,,,,,,,,N*30
$GPGGA,135010.00,,,,,0,00,99.99,,,,,,*60
$GPGSA,A,1,,,,,,,,,,,,,99.99,99.99,99.99*30
$GPGSV,3,1,11,02,65,129,,05,19,034,,06,18,142,,11,53,126,*71
$GPGSV,3,2,11,12,55,175,,15,02,354,,20,28,065,,24,57,337,*74
$GPGSV,3,3,11,25,33,214,09,29,35,263,,32,00,250,*4C
$GPGLL,,,,,135010.00,V,N*4C
$GPRMC,135011.00,V,,,,,,,221121,,,N*79
$GPVTG,,,,,,,,,N*30
$GPGGA,135011.00,,,,,0,00,99.99,,,,,,*61
$GPGSA,A,1,,,,,,,,,,,,,99.99,99.99,99.99*30
$GPGSV,3,1,11,02,65,129,,05,19,034,,06,18,142,,11,53,126,*71
$GPGSV,3,2,11,12,55,175,,15,02,354,19,20,28,065,18,24,57,337,*75
$GPGSV,3,3,11,25,33,214,09,29,35,263,,32,00,250,*4C
$GPGLL,,,,,135011.00,V,N*4D
$GPRMC,135012.00,V,,,,,,,221121,,,N*7A
$GPVTG,,,,,,,,,N*30
$GPGGA,135012.00,,,,,0,00,99.99,,,,,,*62
$GPGSA,A,1,,,,,,,,,,,,,99.99,99.99,99.99*30
$GPGSV,3,1,11,02,65,129,,05,19,034,,06,18,142,,11,53,126,*71
$GPGSV,3,2,11,12,55,175,,15,02,354,16,20,28,065,16,24,57,337,*74
$GPGSV,3,3,11,25,33,214,10,29,35,263,,32,00,250,*44
$GPGLL,,,,,135012.00,V,N*4E
$GPRMC,135013.00,V,,,,,,,221121,,,N*7B
$GPVTG,,,,,,,,,N*30
$GPGGA,135013.00,,,,,0,00,99.99,,,,,,*63
$GPGSA,A,1,,,,,,,,,,,,,99.99,99.99,99.99*30
$GPGSV,3,1,11,02,65,129,27,05,19,034,,06,18,142,,11,53,126,*74
$GPGSV,3,2,11,12,55,175,,15,02,354,11,20,28,065,11,24,57,337,*74
$GPGSV,3,3,11,25,33,214,08,29,35,263,,32,00,250,*4D
$GPGLL,,,,,135013.00,V,N*4F
$GPRMC,135014.00,V,,,,,,,221121,,,N*7C
$GPVTG,,,,,,,,,N*30
$GPGGA,135014.00,,,,,0,00,99.99,,,,,,*64
$GPGSA,A,1,,,,,,,,,,,,,99.99,99.99,99.99*30
$GPGSV,3,1,11,02,65,129,,05,19,034,24,06,18,142,,11,53,126,*77
$GPGSV,3,2,11,12,55,175,,15,02,354,09,20,28,065,,24,57,337,*7D
$GPGSV,3,3,11,25,33,214,08,29,35,263,,32,00,250,*4D
$GPGLL,,,,,135014.00,V,N*48
$GPRMC,135015.00,V,,,,,,,221121,,,N*7D
$GPVTG,,,,,,,,,N*30
$GPGGA,135015.00,,,,,0,00,99.99,,,,,,*65
$GPGSA,A,1,,,,,,,,,,,,,99.99,99.99,99.99*30
$GPGSV,3,1,11,02,65,129,,05,19,034,,06,18,142,28,11,53,126,*7B
$GPGSV,3,2,11,12,55,175,,15,02,354,,20,28,065,,24,57,337,*74
$GPGSV,3,3,11,25,33,214,08,29,35,263,,32,00,250,*4D
$GPGLL,,,,,135015.00,V,N*49
$GPRMC,135016.00,V,,,,,,,221121,,,N*7E
$GPVTG,,,,,,,,,N*30
$GPGGA,135016.00,,,,,0,00,99.99,,,,,,*66
$GPGSA,A,1,,,,,,,,,,,,,99.99,99.99,99.99*30
$GPGSV,3,1,11,02,65,129,,05,19,034,,06,18,142,,11,53,126,*71
$GPGSV,3,2,11,12,55,175,28,15,02,354,,20,28,065,,24,57,337,*7E
$GPGSV,3,3,11,25,33,214,07,29,35,263,,32,00,250,*42
$GPGLL,,,,,135016.00,V,N*4A
$GPRMC,135017.00,V,,,,,,,221121,,,N*7F
$GPVTG,,,,,,,,,N*30
$GPGGA,135017.00,,,,,0,00,99.99,,,,,,*67
$GPGSA,A,1,,,,,,,,,,,,,99.99,99.99,99.99*30
$GPGSV,3,1,11,02,65,129,,05,19,034,,06,18,142,,11,53,126,*71
$GPGSV,3,2,11,12,55,175,,15,02,354,,20,28,065,,24,57,337,28*7E
$GPGSV,3,3,11,25,33,214,08,29,35,263,,32,00,250,*4D
$GPGLL,,,,,135017.00,V,N*4B
$GPRMC,135018.00,V,,,,,,,221121,,,N*70
$GPVTG,,,,,,,,,N*30
$GPGGA,135018.00,,,,,0,00,99.99,,,,,,*68
$GPGSA,A,1,,,,,,,,,,,,,99.99,99.99,99.99*30
$GPGSV,3,1,11,02,65,129,,05,19,034,,06,18,142,,11,53,126,*71
$GPGSV,3,2,11,12,55,175,,15,02,354,,20,28,065,,24,57,337,*74
$GPGSV,3,3,11,25,33,214,07,29,35,263,21,32,00,250,*41
$GPGLL,,,,,135018.00,V,N*44
$GPRMC,135019.00,V,,,,,,,221121,,,N*71
$GPVTG,,,,,,,,,N*30
$GPGGA,135019.00,,,,,0,00,99.99,,,,,,*69
$GPGSA,A,1,,,,,,,,,,,,,99.99,99.99,99.99*30
$GPGSV,3,1,11,02,65,129,,05,19,034,,06,18,142,,11,53,126,*71
$GPGSV,3,2,11,12,55,175,,15,02,354,,20,28,065,,24,57,337,*74
$GPGSV,3,3,11,25,33,214,08,29,35,263,,32,00,250,*4D
$GPGLL,,,,,135019.00,V,N*45
$GPRMC,135020.00,V,,,,,,,221121,,,N*7B
$GPVTG,,,,,,,,,N*30
$GPGGA,135020.00,,,,,0,00,99.99,,,,,,*63
$GPGSA,A,1,,,,,,,,,,,,,99.99,99.99,99.99*30
$GPGSV,3,1,11,02,65,129,,05,19,034,,06,18,142,,11,53,126,*71
$GPGSV,3,2,11,12,55,175,,15,02,354,,20,28,065,,24,57,337,*74
$GPGSV,3,3,11,25,33,214,,29,35,263,,32,00,250,*45
$GPGLL,,,,,135020.00,V,N*4F
$GPRMC,135021.00,V,,,,,,,221121,,,N*7A
$GPVTG,,,,,,,,,N*30
$GPGGA,135021.00,,,,,0,00,99.99,,,,,,*62
$GPGSA,A,1,,,,,,,,,,,,,99.99,99.99,99.99*30
$GPGSV,3,1,11,02,65,129,,05,19,034,,06,18,142,,11,53,126,*71
$GPGSV,3,2,11,12,55,175,,15,02,354,,20,28,065,,24,57,337,*74
$GPGSV,3,3,11,25,33,214,,29,35,263,,32,00,250,*45
$GPGLL,,,,,135021.00,V,N*4E
$GPRMC,135022.00,V,,,,,,,221121,,,N*79
$GPVTG,,,,,,,,,N*30
$GPGGA,135022.00,,,,,0,00,99.99,,,,,,*61
$GPGSA,A,1,,,,,,,,,,,,,99.99,99.99,99.99*30
$GPGSV,3,1,11,02,65,129,,05,19,034,,06,18,142,,11,53,126,*71
$GPGSV,3,2,11,12,55,175,,15,02,354,,20,28,065,,24,57,337,*74
$GPGSV,3,3,11,25,33,214,,29,35,263,,32,00,250,*45
$GPGLL,,,,,135022.00,V,N*4D
$GPRMC,135023.00,V,,,,,,,221121,,,N*78
$GPVTG,,,,,,,,,N*30
$GPGGA,135023.00,,,,,0,00,99.99,,,,,,*60
$GPGSA,A,1,,,,,,,,,,,,,99.99,99.99,99.99*30
$GPGSV,3,1,11,02,65,129,,05,19,034,,06,18,142,,11,53,126,*71
$GPGSV,3,2,11,12,55,175,,15,02,354,,20,28,065,,24,57,337,*74
$GPGSV,3,3,11,25,33,214,,29,35,263,,32,00,250,*45
$GPGLL,,,,,135023.00,V,N*4C
$GPRMC,135024.00,V,,,,,,,221121,,,N*7F
$GPVTG,,,,,,,,,N*30
$GPGGA,135024.00,,,,,0,00,99.99,,,,,,*67
$GPGSA,A,1,,,,,,,,,,,,,99.99,99.99,99.99*30
$GPGSV,3,1,11,02,65,129,,05,19,034,,06,18,142,,11,53,126,*71
$GPGSV,3,2,11,12,55,175,,15,02,354,,20,28,065,,24,57,337,*74
$GPGSV,3,3,11,25,33,214,20,29,35,263,19,32,00,250,*4F
$GPGLL,,,,,135024.00,V,N*4B
$GPRMC,135025.00,V,,,,,,,221121,,,N*7E
$GPVTG,,,,,,,,,N*30
$GPGGA,135025.00,,,,,0,00,99.99,,,,,,*66
$GPGSA,A,1,,,,,,,,,,,,,99.99,99.99,99.99*30
$GPGSV,3,1,11,02,64,130,,05,19,034,,06,18,142,,11,53,126,*78
$GPGSV,3,2,11,12,55,175,,15,02,354,,20,28,065,,24,57,337,*74
$GPGSV,3,3,11,25,33,214,,29,35,263,16,32,00,250,*42
$GPGLL,,,,,135025.00,V,N*4A
$GPRMC,135026.00,V,,,,,,,221121,,,N*7D
$GPVTG,,,,,,,,,N*30
$GPGGA,135026.00,,,,,0,00,99.99,,,,,,*65
$GPGSA,A,1,,,,,,,,,,,,,99.99,99.99,99.99*30
$GPGSV,3,1,11,02,64,130,,05,19,034,,06,18,142,,11,53,126,*78
